name,latitude,longitude,num_reviews,rating,price_range
Bakery - Pastry Giordano Alfredo Riccardo,45.4718705,9.203582899999999,21,4.9,2.0
Panarello,45.4628781,9.187949999999999,210,4.5,2.0
VAILATI PANE & DOLCI,45.4624122,9.204593,172,4.1,
Spùn Tiramisù,45.4637229,9.1872327,571,4.9,
Panificio Col di Lana,45.4522351,9.1826036,4,4.5,
Rinaldini Store Milano,45.4662723,9.188820399999999,443,4.2,
Pasticceria Galdina,45.4653017,9.1764204,6,5.0,
Pasticceria Martesana Porta Romana,45.4526002,9.2017496,38,4.5,
Laboratorio di Pasticceria a Vista,45.4548865,9.1764881,1,1.0,
Panetteria Mercato,45.4713161,9.1844377,53,4.8,
Sayedein Bakery,45.457548,9.206695,20,4.9,
Panarello Ambrodolci,45.4580348,9.1929173,574,4.2,2.0
Giovanni Galli,45.4601923,9.1888179,253,4.5,
Baunilla Brera,45.4671961,9.186062399999999,215,3.7,2.0
La Baloss,45.4729768,9.2067821,20,4.9,
Enrico Rizzi - Milan,45.4598276,9.1804797,188,4.5,2.0
Serge Milano,45.4630994,9.188398699999999,303,4.4,2.0
Pasticceria Adolfo Stefanelli,45.45637,9.1845512,75,4.7,
Sugar,45.4683381,9.172818399999999,610,4.4,3.0
Irrera 1910 - Milano,45.4663495,9.1755687,28,4.3,
La Bottega del Gelato Cardelli dal 1964,45.4833179,9.213039,547,4.4,2
Vanilla Gelati Italiani,45.4644683,9.1937932,1517,4.1,2
Terra gelato,45.487251,9.1659595,131,4.4,
OGGI - Officina Gelato Gusto Italiano,45.475702,9.18385,1691,4.7,2
Gelato 4ever,45.4852302,9.1955057,138,4.7,
Terra gelato,45.4825677,9.2066295,1801,4.6,2
Officine del Gelato,45.4585707,9.2064497,388,4.2,2
Il Gelato di Gaia,45.4760893,9.224053999999999,101,4.1,
Rivareno,45.4711533,9.184406899999999,772,4.4,2
Gelato Fatto Con Amore,45.4660888,9.1774769,1185,4.8,2
Oltre il gelato,45.4967888,9.2027098,47,4.2,
Mancuso Gelati Italiani 1920,45.4856107,9.1914686,427,4.4,2
Il Gelato di Maia,45.478459,9.1764596,55,4.7,
Nosh Gelato,45.4678721,9.172331,176,4.8,
Charlotte Gelati,45.4471818,9.166903399999999,38,4.9,
Gelato Giusto,45.4785465,9.2063448,843,4.5,2
I Giardini del Gelato,45.48698160000001,9.188606,52,4.3,
The ice cream Gianni,45.4885792,9.2237642,377,4.7,1
Rivareno Gelato,45.4520367,9.183138699999999,744,4.6,2
"GELATO for RUN - Gelateria Artigianale, Pasticceria, Yogurt",45.4755226,9.1601897,275,4.6,2
Panarello,45.4628781,9.187949999999999,210,4.5,2
Spùn Tiramisù,45.4637229,9.1872327,571,4.9,
Bakery - Pastry Giordano Alfredo Riccardo,45.4718705,9.203582899999999,21,4.9,2
Rinaldini Store Milano,45.4662723,9.188820399999999,443,4.2,
Panetteria Mercato,45.4713161,9.1844377,53,4.8,
Giovanni Galli,45.4601923,9.1888179,253,4.5,
Baunilla Brera,45.4671961,9.186062399999999,215,3.7,2
Enrico Rizzi - Milan,45.4598276,9.1804797,188,4.5,2
Serge Milano,45.4630994,9.188398699999999,303,4.4,2
Panarello Ambrodolci,45.4580348,9.1929173,574,4.2,2
Princi,45.468798,9.199007,1449,4.1,2
Pasticceria Adolfo Stefanelli,45.45637,9.1845512,75,4.7,
Princi,45.4629919,9.1879952,2942,4.2,2
VAILATI PANE & DOLCI,45.4624122,9.204593,172,4.1,
Pasticceria Paradiso,45.45534929999999,9.1955829,15,3.5,
Pasticceria Galdina,45.4653017,9.1764204,6,5,
Giovanni Galli,45.4640694,9.187379499999999,114,4.4,
Cova Montenapoleone,45.46816889999999,9.1954589,1482,4.4,
My Dessert,45.4660939,9.195467299999999,0,0,
Laboratorio di Pasticceria a Vista,45.4548865,9.1764881,1,1,
Flower Burger,45.4740791,9.183589,404,4.6,2
VIVA | BuonoFrescoNaturale - Duomo,45.4595693,9.179216,72,4.5,2
VegAmore,45.4497006,9.2024419,479,4.5,1
Neat Burger Italia,45.46323599999999,9.181384399999999,0,0,
Artisti del Vegetariano,45.46574529999999,9.1803552,48,3.4,
La Vecchia Latteria,45.4623426,9.1871154,320,3.9,2
Greens & Grains,45.4558551,9.204423,11,4.6,
Alhambra Risto veg,45.4784196,9.206368500000002,1160,4.5,1
Flower Burger,45.4538745,9.1687839,1188,4.5,2
Flower Burger,45.4759439,9.202726199999999,2287,4.5,2
Radicetonda,45.4495182,9.2069942,318,4.3,2
La Colubrina,45.4773693,9.206431,873,4.4,2
Joia,45.4771761,9.2018869,905,4.5,4
Artisti del Vegetariano Milano,45.4699055,9.1848154,416,4.1,
Radicetonda,45.475953,9.207459,767,4.1,2
OAKBERRY AÇAÍ - Milano,45.4674101,9.1728399,74,4.8,
Cactus Kitchen&Bar,45.4786993,9.1845868,80,4.6,
Panghea Ristorante,45.4509959,9.173627699999999,800,4,2
Food Heaven - Cucina Indiana,45.47213139999999,9.2095278,16,4.9,
Salad House - Duomo,45.4627471,9.1931034,121,4.3,
CIBO' Vegan food,45.476204,9.2160633,313,4.1,2
Nana Veg Kitchen,45.458113,9.1612489,25,5,
Base V Juicery,45.4865715,9.203565,38,4.4,
MiBiò Bistrot Milano,45.4534955,9.1569415,215,4.5,
Bistrò 23 La gastronomia naturale,45.4900239,9.164545799999999,15,4.8,
PRAY FOR BURGER - 100% plant based,45.479037,9.202821799999999,80,4.6,
Pils Pub,45.4772821,9.1746129,1073,4.1,2
Old Fox Pub,45.4586775,9.1705974,1405,3.9,1
Pogue Mahone's Irish Pub,45.4506738,9.2039245,2057,4.3,2
I Beerbanti Pub,45.4537761,9.1578567,461,4,1
Bootleg Pub,45.4638668,9.1604428,653,4.5,2
O'Connell Irish Pub Milano Brera,45.4696752,9.1879469,1030,4,
Scott Duff Pub,45.479847,9.18323,1081,4.3,2
The Friends Pub Milano,45.4801852,9.193398499999999,1929,4.4,2
Brasserie Bruxelles Pub,45.4787644,9.2167219,1368,4.2,2
Matricola Pub,45.4756813,9.2234077,1999,4,2
Vinyl Pub,45.4878137,9.1874939,872,4.2,1
The English Football Pub,45.4620263,9.185410500000001,1259,4.1,2
REEB | Pub Milano,45.446618,9.195559099999999,229,4.5,
PUB AL PANINO - MILANO,45.48052,9.1850981,556,4.4,2
Al Confine,45.4564567,9.1705752,965,4.1,1
Jack The Brewer,45.4550733,9.1616442,465,4.4,2
442 Sports Pub,45.4814424,9.167572100000001,737,4.1,2
The Cambridge,45.4677275,9.2229593,494,4.1,2
Sarpi Revolution Pub,45.4812679,9.1759761,20,4.1,
Lambiczoon,45.45414220000001,9.213332699999999,1500,4.5,2
Be Steak,45.4649454,9.1919296,69,4.2,
Smokery by Roadhouse Via Negri,45.465295,9.1845459,1,2,
Roadhouse Milano Via Larga,45.462877,9.1960226,621,4,2
STK Milan,45.4793432,9.1962972,506,4.4,4
Old Wild West,45.4763911,9.1710566,1716,3.9,2
The Brisket,45.45056690000001,9.1700985,1308,4.4,2
La Filetteria Italiana Garibaldi,45.47272,9.1836459,1653,4,3
Old Wild West Milano Colonne,45.4577098,9.1814096,1080,4,2
La Filetteria Italiana Oberdan,45.4747649,9.205912399999999,540,4.1,
El Carnicero,45.4788873,9.1858256,1197,4.3,3
Beefbar Milano,45.4681107,9.1984581,58,4.1,
Sapori Solari - La Bisteccheria,45.4508188,9.1924757,152,4.5,
Muu House - Milano,45.467132,9.2073134,352,4.2,3
Al Mercato Steaks Burgers Sant'Eufemia,45.4574755,9.1894356,656,4.3,2
Al Mercato Steaks Burgers Corso Venezia,45.46949499999999,9.200182,266,4,3
Meat Grillfood,45.4658594,9.191114899999999,1176,3.2,2
Dry Aged,45.4568296,9.17384,491,4.3,2
Joe Cipolla Restaurant,45.4518706,9.1703245,1074,4.4,2
Ristorante Beef Club Milano - Miglior Carne alla Brace della città,45.4676099,9.172523,220,4.6,
Don Juan,45.4505556,9.1991667,1278,4.4,3
Bun Burgers - Dell'Orso,45.4690675,9.1855453,382,4,
Margy Burger,45.4623138,9.194227099999999,1738,4.4,1
Burgez,45.4591403,9.1809922,395,3.8,
Burger King,45.4648958,9.1903434,3218,3.7,1
Hamerica's Camperio,45.4674606,9.1825131,893,4.3,2
Five Guys,45.4660281,9.1966602,5445,3.9,3
Biif Burger - ham & pizza,45.4598607,9.1818604,1035,4.2,2
202 Hamburger & Delicious,45.4596879,9.181047999999999,0,0,
The Grill Missori,45.4594943,9.1920977,404,4.1,2
Five Guys,45.4664011,9.1843417,649,3.9,
Hamerica’s Ticinese zona Colonne,45.4596672,9.1809745,1621,4.3,2
Five Guys,45.4601751,9.181607999999999,373,3.8,2
Kirby burgers and more,45.4573496,9.1899538,97,4.5,
Old Wild West,45.4648088,9.1902851,154,3.6,2
Self bar,45.4776631,9.1768096,0,0,
Caffè Vergnano 1882,45.4628781,9.187949999999999,463,4,2
Orsonero Coffee,45.4777466,9.2113014,1308,4.7,2
NOWHERE - Coffee & Community,45.4598911,9.176891099999999,567,4.7,
Mediolan City,45.4839588,9.2061201,0,0,
Prince Coffee Shop,45.4819948,9.213040600000001,67,4.4,
The Pure Café,45.480128,9.1833713,143,4.8,
12oz Coffee Joint,45.4661873,9.1761986,212,3.9,2
Caffè Vergnano 1882,45.480546,9.188106699999999,9,3.6,2
Starbucks Reserve Roastery,45.4649459,9.1861863,18251,4.4,2
Amadeus Coffee & Shop,45.45878279999999,9.1809274,9,3.3,
DZ coffee shop,45.4749694,9.2203203,14,4.6,
Segafredo Caffè - Coffee Shop SZWW,45.4857054,9.204576699999999,6,3.2,1
Ice & Coffee,45.4603889,9.1907274,115,4.1,2
Amaretto Caffè,45.4658367,9.173879399999999,5,5,
Caffè Milano,45.4945811,9.219440299999999,54,4.7,
Coffee Break,45.4338684,9.200888299999999,16,4.1,
12oz Coffee Joint,45.4636244,9.18911,747,3.8,2
Caffè Vergnano 1882,45.465095,9.197464499999999,59,4.2,2
COFFEE TIME,45.4452905,9.2140297,2,3.5,1
Bun Burgers - Bligny,45.4510481,9.1914113,203,3.8,
Willy's Burger,45.47723999999999,9.20141,247,4.6,
Willy's Burger - Tema Parodico Casa di Carta,45.477615,9.216864300000001,672,4.4,2
Burger Italy Milano,45.4896003,9.1860874,596,4,2
Hamburgers,45.4683041,9.1766952,6,4.3,
Cow Burger,45.4481796,9.197645699999999,218,4.4,2
Burger Wave,45.4472193,9.1771313,1078,4.4,2
Bun Burgers - Iulm,45.4432517,9.1630598,51,3.8,
Fatto Bene Burger,45.4676728,9.155517000000001,1121,4.1,2
Bun Burgers - Porta Venezia,45.4761952,9.207569699999999,263,3.6,
Different Burger,45.451883,9.151917,413,3.7,2
theLab - Unconventional Burger Experience,45.4656682,9.208868899999999,743,4.5,2
Tripburger,45.4824442,9.1970017,824,4.5,2
Ham Holy Burger,45.4666303,9.1511292,1200,4.1,2
StrEat -Burger Bar & Restaurant,45.4575117,9.161088399999999,403,4.4,2
Streat Takeout & Delivery,45.4771621,9.1491822,245,4.4,2
So Natural,45.4593968,9.1704937,421,4.2,2
Organic Pizza and Food,45.46415020000001,9.1809155,653,4.3,2
Amorino,45.4814643,9.187308,53,3.4,2
Ice cream shop,45.4815633,9.214502500000002,103,4.4,2
GROM,45.466357,9.1889226,853,4.3,2
Ciacco,45.463691,9.1868118,2282,4.6,2
Iconico Gelato,45.4566521,9.183122,67,4.7,
Gelateria Porta Romana,45.4530086,9.2006073,369,4.3,2
GROM,45.46669259999999,9.1981573,50,3.9,2
Gelateria Amorino Navigli,45.4518297,9.1739303,731,3.6,2
Gelateria COLOMBO 1981,45.46436629999999,9.1883869,406,3.3,
Amorino,45.4647738,9.190152,613,3.9,2
FreddoGelato,45.4796068,9.1725383,250,4.4,
Cioccolatitaliani,45.4657546,9.1913315,2433,3.8,2
Gelateria LAB,45.4756418,9.212737500000001,81,4.5,
Gelateria Solferino,45.4748537,9.1871668,172,4.4,2
Gelateria Artigianale N 22,45.4489374,9.2068088,364,4.4,2
Gelateria Concordia Milano,45.4680899,9.21004,918,4.6,2
Pizzeria San Giorgio,45.4787918,9.2032692,250,4.7,1
Pasa Kebap Pizza,45.4438651,9.1791973,262,4.5,1
PIZZA OFF,45.4654917,9.1763149,39,4.7,
Ristorante Pizzeria con Forno a legna,45.4670657,9.1857372,61,4.7,
Pizza AM,45.4556129,9.196863,5555,4.7,1
Place to be,45.4586783,9.1817475,0,0,
Piz,45.4619205,9.185647399999999,8572,4.5,2
Venice Ristorante Pizzeria,45.4749434,9.2059631,802,4.3,2
Pizzeria Marina,45.4487977,9.198093300000002,169,4.2,1
Pizza + Cucina,45.466168,9.1917654,44,4,
Pizzeria Capuano's,45.4806685,9.1686025,2165,4.3,2
Pizzeria Starita Milano,45.4768909,9.1703999,2797,4.3,1
Savô Pizzeria Gourmet,45.4825955,9.1979884,257,4.9,
Pizza House 3,45.4778241,9.179584499999999,105,4.1,1
Pizza OK,45.47446739999999,9.2102759,1597,4.1,1
Pizzeria Milano Pizza Kebab Milano,45.4577165,9.2035807,132,4,1
Pizza Ok 2,45.46993310000001,9.153471099999999,817,4.1,2
Ok 3 Pizzeria,45.4816186,9.211642699999999,114,4.5,1
Pizzeria Tutti I Gusti,45.4408371,9.156262,173,4.1,1
King Pizza,45.4655256,9.2080776,50,4.8,
Panino Giusto,45.4600845,9.1814328,903,4,2
Paninoteca,45.4787982,9.2032749,2,2,
Panini Durini,45.4652563,9.1884236,863,4.1,2
Panini De Santis - Milano,45.4655889,9.1797942,921,4.4,2
Sir Sandwich,45.43707200000001,9.210478,75,4,
Putìa - Panini Terroni,45.465043,9.1768653,0,0,
Panino Giusto,45.4798508,9.1861666,707,3.8,2
Bar Paninoteca Unione,45.46228139999999,9.1873534,192,4.2,
Panino Giusto,45.4858284,9.203481199999999,569,3.5,2
Paninoteca al 19,45.447565,9.182657299999999,55,4.6,
Panino Giusto,45.4531984,9.179637099999999,450,3.8,2
Silvia pane,45.45996770000001,9.184132300000002,0,0,
Al Politico,45.4688188,9.180332,714,4.7,1
Panini De Santis Milano c/o La Rinascente,45.4651917,9.191706,72,3.2,
Marcellino il Sarto del Panino,45.4814833,9.203316,208,4.6,
Panino Giusto,45.470985,9.2012027,378,3.9,2
Piadina a piacere,45.4592046,9.1787207,0,0,
Panini Durini,45.4641386,9.1873706,676,3.9,2
Paninoteca Ciaraldi,45.4797276,9.2111628,746,4.5,1
Panini Durini,45.4654183,9.198347499999999,489,4.1,2
Spontini,45.4657451,9.1912058,7005,4.2,1
Da Zero,45.4642846,9.1793373,3428,4.4,2
Il Pizzaleo - La vera pizza al taglio,45.4549628,9.1723618,147,4.7,
Pizzeria Italia Uno,45.4508355,9.1901242,74,4.5,1
Pizza & Pasta,45.4655867,9.1999113,12,2.2,
'O Fiore Mio Pizze di Strada,45.4751462,9.1908994,173,4.8,1
Pizzeria,45.4508482,9.197660500000001,5,4.8,
The Lounge Bar,45.4786802,9.199333099999999,28,4.1,
Base cocktail bar,45.4523209,9.164190699999999,14,3.2,
Junction Bar & Sound,45.4977296,9.18413,66,4.2,
"VETRA - Cocktails, Beer & Wine bar",45.4570839,9.1833107,66,4.3,1
Bar ile,45.4685858,9.2330436,66,4.6,
Oberdan Bar,45.47521690000001,9.2049626,78,3.7,
BAR MAN BAR,45.46058499999999,9.1838567,4,5,
Bar 089,45.4337281,9.1851486,132,4,1
Bar Magenta,45.46571429999999,9.1756493,5569,3.8,2
backy bar,45.4879167,9.1625008,25,4.8,1
Bar Gluck,45.4910828,9.2070731,357,4.2,
Bar All In - Food & Beverage,45.4871727,9.1623872,38,4.5,
The Doping Bar,45.4531584,9.179171199999999,652,4.4,3
Bar,45.4700929,9.1930038,1,5,
Step Bar Milano,45.476462,9.203745999999999,146,3.9,
Bar Brera,45.4723727,9.1874637,1621,3.8,2
Rufus Cocktail Bar,45.4679738,9.1643106,594,4.4,2
Kilburn Cocktail Bar Milano,45.4768568,9.2030387,918,4.5,2
Bar Porta Romana,45.4514819,9.2045249,70,3.9,
Monkey Cocktail Bar,45.480857,9.2035472,649,4.4,2
Panino Giusto,45.4654528,9.193315799999999,1272,4.2,2
Panini De Santis via Battisti - Milano,45.4628738,9.200462199999999,29,4.1,
Il panino del laghetto,45.46156,9.195655799999999,329,4.7,1
Panini De Santis via San Carpoforo - Milano zona Brera,45.4714924,9.1849192,48,4.4,
Marcellino il sarto del panino,45.4643528,9.188342,124,4.1,
Crocetta Panini d'Autore 1982,45.4564725,9.1953893,393,3.7,2
Panino Giusto,45.4624834,9.189563699999999,635,4,2
Bacetti e Baguette,45.4441614,9.214957499999999,1,5,
Bakery Pastry Di Lorenzo Vailati Vailati,45.4808667,9.2091428,353,4.2,
DOLCELINO Pasticceria Milano,45.4590839,9.2111188,90,4.6,2
Panificio Col di Lana,45.4522351,9.1826036,4,4.5,
Pastry Luca Milano,45.4565357,9.162294,175,4.6,2
PastiChéri,45.480574,9.171005,357,4.1,2
The King's Italian Bakery,45.4780749,9.2034666,412,4.4,2
L.Z. Chinese Pastry Shop,45.4874696,9.218680299999999,72,4.6,1
Pica Pasticcerie Milano,45.4804756,9.2122393,162,4.6,
Martesana Pastry Shop,45.4810459,9.1705767,957,4.2,2
Sweet Island pastry and food,45.4898672,9.189898999999999,5,4,
Italian Bakery,45.47679,9.2095406,269,4.4,2
Bar Pasticceria Rovida,45.4835001,9.207981799999999,485,4.4,2
Bakery 59 Milano,45.4795576,9.1726099,10,3.8,
La Ravioleria Gourmet,45.4845889,9.1631027,0,0,
Cherry Pit Pasticceria,45.4875244,9.186858899999999,176,4.6,2
Pasticceria Scaringi,45.4789708,9.2032683,204,4.2,2
La Pasticceria del Take Away,45.4778892,9.1889972,29,4,
Pasta à Gogo,45.48465849999999,9.216728,633,4.4,1
Pasta d’Autore,45.4587585,9.1809426,2000,4.5,2
Osteria italiana,45.4828937,9.203351999999999,2604,4,2
Un'Altra Pasta,45.4619362,9.1941008,1018,4.6,1
restauranti pizza fish pasta,45.4836395,9.2015887,0,0,
Pasto - Laboratorio di pasta con cucina,45.4626825,9.1843978,967,4.7,1
La Corte di San Maurilio Ristorante pizzeria duomo Milano,45.4618541,9.184636099999999,711,4,2
éPasta the Italian food,45.4631196,9.176414099999999,37,4.1,
Pasta mi,45.46690299999999,9.1653916,119,4.7,
Mani in Pasta,45.4729298,9.211005199999999,1460,4.4,2
Pausa Your Italian Break,45.459293,9.1784488,292,4.6,
ALDENTE Pastabar - Bocconi,45.4515216,9.188408899999999,118,4.4,
Pasta Fresca Da Giovanni,45.44920200000001,9.177581,669,4.7,
Pastificio Irma,45.46579,9.161586,99,4.4,
Galleria Restaurant,45.4660612,9.1899193,3101,4.5,3
Mani in Pasta,45.4790387,9.162856699999999,365,4.8,2
ALDENTE Pastabar - Cordusio,45.4673206,9.1858501,600,3.9,2
Pasta Fresca Brambilla - Bistrot e Laboratorio,45.4724637,9.210194699999999,306,4.5,2
The FisherMan Pasta,45.4727366,9.184035000000002,741,4.3,
Mare in pasta - Darsena,45.4551522,9.1733614,608,3.9,2
Salsamenteria di Parma San Babila,45.4664893,9.195311799999999,1840,4.3,2
Obicà Mozzarella Bar - Duomo,45.46484280000001,9.1921017,2466,3.9,2
"'Gnulot, Pasta Fresca",45.4618171,9.2040639,102,4.4,
Da Regina 1985,45.4649922,9.1890515,2230,4,2
Ristorante Papà Francesco,45.466232,9.190525,2019,3.9,2
Andry,45.4674449,9.184529999999999,687,4.4,2
Pasta B Jinghua,45.4661941,9.1920337,617,4.2,2
Pane & Vino,45.46032779999999,9.181182699999999,1099,4.1,2
Ramen shop,45.4774197,9.2060659,1463,4.6,2
"Zazà Ramen, sake bar & restaurant",45.4789968,9.1886023,1481,4.2,2
Niuda Ramen a Mano,45.4510328,9.1984239,352,4.8,
Mr.Wang Handmade Ramen & Dumplings,45.4515565,9.1869765,27,4.7,
Ramen Misoya | Milano,45.4795769,9.1886668,711,4.4,2
Ramen e Ravioli,45.4810942,9.173418999999999,69,4.7,
Takumi Ramen Kitchen Milano,45.479844,9.1720126,1248,4.6,2
Ramen House,45.459391,9.2070586,1023,4.3,1
Ramen Station,45.4503098,9.1797895,767,4.4,1
Takumi Ramen Tonkotsu,45.4516641,9.1869514,116,4.5,
Daisy ramen(ex don street food),45.4813223,9.176528,178,4.2,
TENOHA RAMEN CLUB,45.4532761,9.1724296,475,4.5,
Lanzhou Ramen （樂家),45.4776138,9.2051465,555,4.3,
Ramen Shifu Monte Nero,45.4578925,9.2060631,189,4.7,
Inada ramen,45.4520334,9.2043059,245,4.8,
Casa del Ramen,45.4532374,9.1717329,490,4.4,
Asian flavor,45.45653859999999,9.1675347,417,4.3,2
Casa del Ramen,45.4556001,9.1646413,415,4.3,2
Chopsticks Ramen&sushi,45.461254,9.2115185,40,4.5,
Ramen a Mano,45.482318,9.1721154,1447,4.5,2
Tapa,45.4511554,9.2060475,1090,4,2
Ba Ba Reeba,45.46325950000001,9.1994654,495,4.2,2
Tapas de Pescado,45.4504131,9.2010048,308,4.3,2
Il Tasca Milano,45.4592549,9.1810261,352,4.1,2
Llevataps,45.4598778,9.1715056,542,4.2,2
La Casa Iberica - Viale Premuda 1,45.4630472,9.2072709,455,4,2
La Tartina,45.4714318,9.184865499999999,892,4.2,2
La Casa Iberica,45.4714805,9.183821,1072,4.2,2
La Tienda de juan,45.4758007,9.2045497,590,4.5,
Albufera,45.4818694,9.2062361,1472,4.5,3
Sevilla Mia Restaurante,45.4569765,9.1694494,260,4.2,
Recreo Bar Sartoria,45.4808333,9.1719444,460,4,2
La Casa Iberica - Colonne di San Lorenzo,45.4592592,9.1819028,152,3.6,
Moebius Milano,45.4814155,9.2028798,892,4.4,
Vino Y Tapas Srl,45.452295,9.174809999999999,0,0,
Señorío Milano,45.4796639,9.1799854,151,4.5,
Enoteca Don Pietro,45.4527254,9.174805,115,4.5,2
Gne Gnè,45.4530458,9.173943999999999,2,3,
"Tutto Bene, Grazie Bistrò",45.4661581,9.177197699999999,774,4.1,2
Bacancíto Milano,45.4493968,9.2024844,145,4.2,
ILK Kebap,45.4646467,9.1871776,178,3.9,
Turkish Kebab,45.4556166,9.1968411,96,4.1,1
İstanbul,45.4560091,9.1808456,2,5,
ATA Kebab Pizza,45.4557936,9.1964854,94,4,1
Kebhouze - Colonne,45.4571532,9.1808306,34,4.1,
Champion Turkish Kebap,45.4560091,9.1808456,44,3.8,
Mina Pizza & Kebab,45.4547066,9.204252799999999,112,3.7,1
Kebab Pizza Istanbul Ayasofya,45.4675446,9.182463,458,4.3,1
TURKISH KEBAB PİZZA,45.45926799999999,9.1778284,34,4.8,
Royal Turkish Kebap - Pizza,45.4749545,9.205974399999999,327,4.4,1
Duomo Kebap Halal Grill Pizza Turkish,45.46160769999999,9.190909399999999,580,4.3,1
Palastine Halal food Kebap Pizza Grill,45.4615286,9.1903671,1002,4.3,1
Kebab Pizzeria Halal Mimi 2,45.4609594,9.185037399999999,42,4,
San Francesco 2,45.4550571,9.201505200000001,63,3.1,
Turkish Kebab,45.498844,9.144114499999999,12,4.1,
Papiniano Pizzeria Kebab Milano,45.4567504,9.172498299999999,282,4.2,1
Mevlana Kebab,45.4848915,9.215653099999999,47,4.1,
Pizza Kebab San Gottardo,45.450332,9.1800151,227,4.1,1
Lodi Kebab & Pizza,45.4485763,9.2076487,187,4.2,1
Bocconi Turkish Pizzeria Kebap,45.45082490000001,9.1928041,139,4.1,1
TURKISH KEBAB PİZZA,45.4510593,9.197935,12,4.8,
Turkish Kebap Borsieri 28,45.488756,9.189146,346,4.4,1
Pizzeria kebab jerusalem,45.4767028,9.2054032,15,4.9,
İstanbul Girasole Kebap,45.4915776,9.2181435,112,4.3,1
Turkish Kebab,45.4945003,9.2073758,50,3.3,1
Döner Club Kebab,45.4586096,9.2065007,113,4.4,
Kebab e pizza Garibaldi,45.481883,9.183611599999999,154,3.7,
Kebapçi turksse,45.43672189999999,9.2140466,75,4.5,
"My Heart - Pizze, Hamburger e Piadine Gluten-Free e Lactose-Free",45.4618762,9.209632,259,4.4,
GluFree Bakery,45.4564514,9.2022572,740,4.5,2
Be Bop,45.4520194,9.1823056,1875,4.3,2
PanPerMe - senza glutine a Milano,45.4593062,9.2065865,559,4.4,2
Wad,45.4665262,9.195240499999999,0,0,
Officine Del Dolce - Pasticceria gluten free e Gelateria,45.4440302,9.2150582,259,4.2,2
Mama Eat,45.4835646,9.1702621,1506,4.1,2
Spontini - Gluten Free,45.4526113,9.1762102,616,3.7,1
Officina Zero,45.4857385,9.214173299999999,558,4.5,2
Mamastreat,45.4854827,9.2162873,93,4.6,1
Food Senza Glutine Srl Franchising,45.48719639999999,9.2031581,2,3,
Le Specialità,45.46284499999999,9.2104783,980,3.7,3
Peperino e Milano,45.480967,9.1859579,3100,3.9,2
Cook Window,45.4601864,9.2091599,320,4.1,1
Rossopomodoro,45.4655661,9.198562299999999,1314,3.9,2
Caffè Sì,45.4705675,9.200705899999999,16,4.2,
Moka Coffee,45.45507019999999,9.2159762,11,4.7,
Blu Istambul,45.4859928,9.1584217,711,4.2,1
Payitaht istanbul Navigli Kebap,45.45159169999999,9.177660699999999,28,4.5,
Ayasofya-Santa Sofia Kebap Pizza,45.4836321,9.214403599999999,1093,4.4,1
Starbucks Durini,45.4656733,9.1985864,2084,3.9,2
Caffè 46,45.4785206,9.192466099999999,53,4.7,
Good Morning Cafè,45.4577186,9.1687756,173,4.4,
Milano Roastery,45.452197,9.2031251,547,4.4,2
Starbucks Garibaldi,45.48019970000001,9.186805699999999,2482,4,2
Lepos Cafè,45.4791562,9.2055816,22,4.5,
Pizza And Food,45.495251,9.2376864,530,4.2,1
Pizzeria Olivia,45.48184939999999,9.2323109,107,4.5,1
Mangiò,45.4779575,9.1825241,47,4.7,
Roadhouse Meatery,45.478398,9.1542658,1714,3.9,2
Roadhouse Restaurant Milano Centrale,45.486424,9.2039711,1548,3.7,2
Skuisito SteakHouse & WineBar,45.4815581,9.2278375,1042,4.3,2
Old Wild West,45.4450773,9.161671,1644,3.8,2
Old Wild West,45.4914595,9.1917744,1073,3.8,2
Steak Hause Milano S.R.L.,45.4839395,9.1814734,0,0,
Baobab Organic Burger,45.4727366,9.184035000000002,1769,4.2,2
Golocious SbamBurger Milano Porta Ticinese,45.45471149999999,9.1802891,154,4.2,
Burger King,45.4681416,9.1756303,1994,3.2,1
Elio's ice cream,45.4812263,9.2249349,92,3.9,
Ice Cream Bar,45.4304553,9.1787966,76,3.6,
Orsi Ice Cream Shop,45.4443627,9.1767526,794,4.1,1
The Sweet Traditions,45.48812299999999,9.2265522,283,4.3,2
Coffee Pastry Scaringi,45.48142929999999,9.2262798,586,4.1,2
Pasticceria,45.45496540000001,9.1543458,135,4.5,2
Vanilla Bakery,45.4692441,9.154729399999999,888,3.9,2
NATURAL BAKERY PANETTERIE DAMIANI VIA MOLINO DELLE ARMI 31 MILANO,45.45677269999999,9.1831399,18,4.4,
Carnelli's Bakery,45.455669,9.1805056,19,4.5,
Grannus Milano Bakery • Porta Ticinese,45.45675139999999,9.1805165,0,0,
Panificio Maria Marinoni,45.4632554,9.199404300000001,32,4.3,
Backerei Srl,45.4694235,9.1855012,1,5,
Grannus Milano Bakery • Porta Romana,45.457926,9.1931183,53,3.6,
Leos Bakery,45.4554999,9.196956000000002,46,4.8,
Princi,45.4693324,9.185535999999999,812,3.7,2
Panificio Pasticceria,45.4557698,9.180595799999999,6,4.8,
Pane & Pane,45.4725747,9.193380699999999,15,4.2,
PANIFICIO RIMCO 2,45.4625126,9.187598699999999,12,4.9,
Natural Bakery - Damiani,45.4582813,9.176895499999999,22,4,
Cupcake Couture,45.4568406,9.1811165,0,0,
Pescatore Lobster Bar,45.4494879,9.198254,19,4.7,
Fishbar De Milan,45.4752981,9.189119,401,4.2,3
The Fish Ristopescheria - Milano,45.4666922,9.2100821,933,4.2,2
Langosteria,45.4556502,9.1685857,1797,4.6,4
Esca Fish Restaurant,45.4785378,9.2072875,0,0,
Lobster & More Trattoria,45.4755619,9.1840785,421,4.2,
La Taverna Del Pesce Ballerino - Fish Dancer,45.4817141,9.1967973,3077,4.1,2
Marea Seafood & Beverage,45.4590616,9.1825637,160,4.8,
Marecrudo,45.4524734,9.2012694,314,4.4,3
Pescetto,45.4794791,9.1834747,2304,4.4,2
OYSTER BAR,45.4647639,9.2099726,69,3.9,
Shannara 3,45.4493814,9.1997827,494,4.3,2
Langosteria Bistrot,45.4553894,9.1710514,1693,4.6,4
Ocean Restaurant,45.50066409999999,9.1827627,32,4.4,
L'Officina Del Pesce,45.48001989999999,9.1844301,240,4.3,
Trattoria del Pescatore,45.4495211,9.1983629,1586,4.5,2
Noi Pesce,45.4842412,9.157126,951,4.3,2
La Risacca Blu,45.477249,9.2059128,317,4.2,3
Glauco,45.47651399999999,9.216179499999999,221,4.4,4
Eat Restaurant,45.4543502,9.194766099999999,36,4.1,
Soul food,45.4488402,9.1767938,43,5,
DeRos Restaurant,45.4685966,9.1904551,427,4.7,
Restaurante,45.4631391,9.1945017,0,0,
Sophia's Restaurant,45.4868393,9.1573712,265,4.5,3
Restaurant Manin Garden,45.4739456,9.1960427,5,4.6,
La Prima Restaurant,45.4678512,9.1867758,0,0,
a'Mare Restaurant,45.4627885,9.1930613,731,4.1,2
PanEVO Restaurant,45.478845,9.1992997,184,4.3,3
Vik Pellico Otto Restaurant,45.4657576,9.1897216,35,4.2,
142 Restaurant,45.45459530000001,9.17135,158,4.7,
Indian Restaurant and Take Away,45.4839046,9.2093805,529,4.8,
Benvenuto Family Restaurant - Milano,45.457512,9.1837302,435,4.5,2
Maio Restaurant,45.4648789,9.191965699999999,1318,4.1,3
Italy Restaurant Milano,45.4661701,9.1858569,529,3.9,1
ORO restaurant,45.463882,9.1871557,384,3.9,
Bioesseri Milano Brera,45.4728929,9.1885126,994,4,3
Pansy Gourmet,45.4573437,9.1930728,29,4.8,
Bistrò,45.4655889,9.1797942,1047,4.2,2
Pizzeria Positano Milano,45.4595707,9.1825648,598,4.7,
California Bakery,45.472681,9.206761199999999,147,3.9,2
Pizzeria Del Ticinese,45.4568642,9.1809697,725,4.4,2
Cantina Piemontese,45.4614961,9.1955507,742,4.3,2
Pub Ilio,45.45977999999999,9.1997337,0,0,
East River | American Pub,45.45794859999999,9.1834461,48,4.6,
Bukowsky Pub,45.4565756,9.1895107,50,4.3,
Tutti Fritti,45.4586923,9.1809847,449,4.4,2
Mind The Gap,45.4566543,9.2024166,411,4.3,2
Bar Brema,45.46329009999999,9.1996273,45,4.3,
Bottini Milano,45.4579076,9.1804356,48,5,
Montmartre Cafè 1952,45.47200429999999,9.185427299999999,255,4,2
Ajo Blanco,45.4920152,9.1887147,1060,4,2
Mantra,45.4873176,9.1884497,31,4.7,
La Casa Iberica - Via Carlo Ravizza 8,45.4679424,9.1523683,73,3.7,
Volverè - ristorante spagnolo con brace a Milano,45.48864409999999,9.1630734,718,4.4,2
SAPEMARE,45.4864942,9.188363299999999,78,4.7,
King Of Salads Milano,45.4600261,9.1818976,8,4.3,
Salad House - Sant'Ambrogio,45.4646561,9.176428,78,4.6,
Factory Bowls & Salads,45.4580997,9.189832,13,1,
Green Day Natural Food & Bar,45.4600261,9.1818976,56,3.8,
Viva | BuonoFrescoNaturale - Crocetta,45.4560262,9.1954463,536,4.1,2
Juice Bar,45.46614,9.191806999999999,815,3.7,2
Frankie's,45.4555928,9.180773499999999,252,4.4,
Peck,45.4635131,9.1869525,4036,4.4,4
Panini Durini,45.4681396,9.1905431,232,3.9,2
God Save The Food,45.4701683,9.185547,1620,3.9,2
Cafè de Ville,45.4677778,9.1830556,739,3.8,2
EATME & GO,45.4609262,9.184618,1374,3.9,2
The Pure Salad,45.465947,9.1767824,49,4.5,
Restaurant Tylas,45.4573404,9.1751535,0,0,
Restaurante,45.4726642,9.1870339,4,4.3,
Desco Milano,45.4661298,9.1865513,59,4.2,
Condé Nast Bistrot,45.4674974,9.1770342,60,4.4,
Il Carminio,45.4704178,9.1870312,211,4.5,
Spiga Amica - Prodotti Freschi Senza Glutine,45.457857,9.1620931,48,4.7,2
Bontà senza Glutine,45.4411322,9.1519034,46,4.3,
"Ristorante Pizzeria Oasi, carne, pesce, pizza, pizza senza glutine, pizza senza lattosio e pizze Vegane",45.49478389999999,9.140692099999999,651,3.9,1
Il Diamante - Ristorante Grill Pizzeria - Senza Glutine - Milano,45.4493751,9.136653899999999,589,4.3,2
Il Piccolo Principe,45.47383809999999,9.1482805,1161,4,2
Neko Bento&Ramen,45.4617006,9.1883909,193,4.7,
Al Mercato Atomico,45.4516662,9.1877955,268,4.2,2
Casa Della Farina Porta Romana,45.451265,9.2043579,156,4.4,2
Noodles,45.4530168,9.1720141,66,3.8,2
Bice Restaurant,45.4700557,9.194168399999999,676,4.3,3
Di Gennaro,45.4657604,9.1916614,2394,3.9,2
Charleston,45.4656792,9.1942264,1693,3.6,2
Gino's 1928,45.4656639,9.1910917,1784,3.5,2
Via Pasteria Milano,45.45794799999999,9.187492899999999,114,4.9,
Risoelatte,45.4664981,9.183411699999999,1572,4.4,2
Veganfruttariano - Sound of '70s,45.5020135,9.175999599999999,306,4.1,2
Panini Turro,45.4974585,9.2251893,436,4,2
Organza.it,45.4639858,9.178488699999999,0,0,
Genuino,45.4741899,9.194605,170,4.3,
MACHA Café Porta Vittoria,45.4627309,9.1992189,398,4.1,2
Graniburger,45.4551035,9.1802567,41,4.9,
Pub Drago Verde,45.4825695,9.1810387,161,4.2,2
Wizard,45.45043750000001,9.1692804,544,4.5,1
BLUES CANAL,45.451474,9.170964,2739,4.3,2
Bar & Pub La Comida da Jenny Milano,45.4758889,9.2006616,87,4.5,
King's pub Burgerama,45.4512252,9.1776103,850,4,2
Headbangers Pub,45.4505934,9.2199089,216,4.7,2
Henry's Cafe,45.4520725,9.1820383,988,4.2,2
三鹿冰淇淋,45.4653157,9.195462899999999,45,3.8,
Gelateria La Romana,45.45211159999999,9.1813711,2039,4.6,2
La Voglia Ice Cream,45.4666424,9.1846216,501,3.3,2
Rinomata Gelateria,45.4521633,9.1774955,203,3.9,
Gelateria Oasi,45.4589371,9.178200799999999,875,4.4,2
The Rabbit Hole Restaurant,45.463882,9.1871557,7,3.9,
The Manzoni,45.4680515,9.190518599999999,392,4.5,
Farini Rinascente,45.465466,9.1920778,94,3.7,
BARTENDER & RESTAURANT S.r.l.,45.4680323,9.185387,0,0,
Dante Restaurant Cafè Milano,45.4672316,9.1832455,27,4.6,
L’Antico Ambrosiano,45.46456999999999,9.1932969,0,0,
Pizzeria Positano Street Milano,45.4481216,9.1868305,21,4.9,
Amore Sicilian Bakery,45.471695,9.1670135,196,4.7,
Sayedein Bakery,45.457548,9.206695,20,4.9,
Peter Pan Bakery Milano,45.4529311,9.172769299999999,32,4.7,
Panificio Martina Bakery & Coffee,45.4807463,9.169354499999999,20,4.8,
Bakery Galantino Giovanna,45.4538756,9.2038175,37,4.4,2
The Bread Bin,45.45804589999999,9.1720711,34,4.1,
Il Pane di Luca Bakery & coffee,45.4575202,9.2125048,74,4.5,
Sophia Bakery,45.4580756,9.170279400000002,45,4.2,
Panbarons Milano,45.465498,9.175989999999999,49,4.5,
Olivia Gelato,45.460884,9.162951999999999,185,4.6,2
Fatto Bene Burger Monti,45.4720722,9.1680928,590,4.2,2
sweetburger - Navigli,45.4530501,9.180753200000002,447,4.7,
Angus & More,45.4594104,9.2065552,537,4.5,2
Meat Crew - American Burger,45.4510251,9.189192,181,4.7,
Burgez,45.4552568,9.1678821,641,4.2,1
Ham Holy Burger Brera,45.4753188,9.184776099999999,999,4.1,2
El Porteño Gourmet,45.4628713,9.188098499999999,435,4.5,
Kebap murillo 33,45.4751543,9.1432108,5,4,
Kebabbar Star Zagros,45.4620318,9.219056199999999,873,4.6,1
Milano Kebap House,45.4755404,9.1843532,115,4.2,1
Populer Pizze e Kebab,45.4870257,9.2117676,29,4.2,
Istanbul Kebab Restaurant,45.4821868,9.2073283,564,4.1,1
Mekan Kebap,45.4515415,9.154496499999999,569,4.2,1
KUZEY TURKİSH KEBAP PİZZERİA,45.4761233,9.2241378,2,5,
Turkish Kebap,45.47589060000001,9.193912400000002,215,4,1
Turkish Kebap,45.4620284,9.2124223,280,4.1,1
Kebab Molise,45.4567445,9.2235915,179,4.1,1
Watt Turkish kebab&pizza,45.4445705,9.1544786,96,4.1,1
İSTANBUL Turkish Kebap,45.483124,9.1654274,350,4.5,1
Anatolia Kebab & Pizza Milano,45.451395,9.151425099999999,797,4.4,1
ecooking,45.46264,9.1891088,884,4.1,2
McDonald's,45.4676462,9.1832718,2754,4,1
Piccolo Café & Restaurant,45.4665451,9.1847671,423,3.9,
Caffè Dante,45.4672316,9.1832455,1124,2.6,2
McDonald's,45.4606759,9.1819159,3101,3.9,1
La Piadineria,45.4585346,9.184919299999999,44,4.3,1
Maia Bistrot,45.4662136,9.1872545,165,4.5,
La Piadineria,45.46643299999999,9.1889655,129,4.1,1
Cesarino,45.4644472,9.1935168,496,4.8,
Fidel's Bakery,45.490569,9.221133199999999,90,4.2,
LE COLONNE GELATI & CREPES FAMOSE,45.456494,9.1808689,841,4.5,2
GelaCreperia,45.4520278,9.176747299999999,220,4.5,1
Maison Bretonne,45.481015,9.166811599999999,901,4.5,2
"MAGOLOSA - Gelateria, Crêpes, Wine Bar",45.4585963,9.149125999999999,226,4.7,
Cocotte Jolie,45.4597141,9.1800932,126,4.5,2
Crêperie,45.480942,9.1668015,7,4.7,
Viel Gelati Milano - Dal 1948 con voi,45.4774658,9.2078239,1037,4.2,2
Todo Modo,45.5033794,9.1614279,639,4.3,1
Al Grigliaro,45.465413,9.2111629,229,4.4,3
CÖRAL Restaurant,45.45976659999999,9.176656099999999,56,4.5,
Istanbul aksu kebap pizze grill,45.4998038,9.1486953,69,4.1,1
McCafé,45.464349,9.1884359,396,4.1,1
illy,45.4686277,9.194616900000002,854,4.2,2
Giornali Con Caffe,45.4615646,9.1851223,11,4.9,
Larus Cafè,45.4580487,9.185759599999999,3,3.7,
That's vapore,45.4668562,9.190758599999999,5,4.2,
Caffè Napoli,45.4592967,9.181003,339,4.4,1
S Caffé,45.46074549999999,9.1874415,19,4.6,
Giorgi's Bar Café,45.4629852,9.1858857,62,4.6,
Caffè Sant'Orsola,45.4628779,9.181706400000001,46,4.7,
illy,45.4649475,9.192018899999999,42,3.3,2
Milano 20125,45.4653102,9.1852822,0,0,
Caffè Milano,45.4672074,9.1834243,138,4,
12oz Coffee Joint,45.46054119999999,9.1906011,217,4,2
Ramen Shifu Filzi,45.4830849,9.199747499999999,522,4.3,2
Mi-Ramen Bistro,45.4526177,9.1554517,1139,4.4,2
Casa Ramen Super,45.489669,9.1873702,824,4.5,2
Takumi Ramen & Yakisoba,45.4890207,9.1876725,352,4.6,2
FRESHED.,45.4464826,9.1818803,14,5,
Fresh Cut- Milano,45.4759286,9.1949782,35,4.2,
Fresh Cut - Viale Bligny,45.4511332,9.188772199999999,16,4.3,
L'Oasi Del Fresco. Anguria,45.462189,9.158059,62,4.4,
VIVA | BuonoFrescoNaturale - Lodovica,45.4518048,9.1862198,142,4.2,2
Italian Creative Salad,45.4519077,9.20762,39,5,
Fruit&Salad,45.4619507,9.1845628,18,4.9,
Healthy Color - Moscova,45.4775533,9.185028599999999,271,4.1,2
Lido Liquor Bar,45.4564769,9.1733171,65,4.2,2
Bar BAH,45.4890617,9.1871228,499,4.5,2
Drink Bar,45.4838648,9.1870175,6,5,1
Lounge Bar,45.49977,9.2261084,49,3.9,
Bar Diciannove,45.4877207,9.1549567,44,4.5,1
I lovegetarians,45.4567888,9.180765599999999,0,0,
El PASO de los TOROS,45.4766467,9.2051803,1099,4.1,2
Sweets Namura,45.4845654,9.1642435,317,4.4,2
Pastry Confectionery Massimo 1970,45.451177,9.1968791,164,3.8,2
Pasticceria Lizzy,45.4637495,9.161361399999999,70,4.6,2
Pearl Milano - Oyster Bar & Tapas,45.4647639,9.2099725,8,5,
Cheers Pub,45.488693,9.2254834,1922,4.4,1
Shatarpub,45.4725753,9.1428651,436,4.3,2
The Ghost Pub,45.4985225,9.1863672,863,4.2,2
Beer Garage pub,45.4975737,9.2327806,367,4.3,1
Pick 'n roll sport pub,45.4963913,9.1409256,121,4.5,1
Irish Pub Mulligans & Whisky Bar,45.4894691,9.1675831,1128,4.5,2
Guinness Harp Pub,45.4773533,9.2255221,990,4.4,2
Tin Whistle,45.4451884,9.1445961,340,4.4,2
Zen Sushi,45.4596704,9.1886782,553,4.4,3
Urban Sushi,45.466808,9.2003263,52,4.6,
Yokohama Sushi Restaurant,45.4597353,9.1915214,1219,4.5,2
Sushi Li,45.4615932,9.1876948,653,4.5,2
Nami Milano,45.4596879,9.181047999999999,261,4.3,2
Hanabi Milan Sushi Restaurant,45.4611232,9.196641099999999,676,4,2
Cinquantadue,45.4712655,9.1825567,173,4.5,
NIMA Sushi,45.4607213,9.1899561,367,3.5,2
BASARA sushi pasticceria,45.464883,9.1919414,122,4.2,
Sensei Fusion Milano-All You Can Eat-Colonne San Lorenzo,45.4596494,9.1794329,859,3.9,1
Wasabi,45.4694235,9.1855012,849,4,2
Kisen Sushi - Colonne San Lorenzo - Milano,45.458829,9.179686799999999,493,4.4,2
BASARA sushi pasticceria,45.4599586,9.187973699999999,294,4.4,3
Sushi experience,45.4605338,9.1833977,1,4,
Temakinho,45.4631081,9.189825299999999,1325,4,2
Ichi Station,45.4689631,9.1846044,11,3.7,
Parco Sushi Sashimi,45.4658066,9.1793613,241,4,2
Wicky's Innovative Japanese Cuisine,45.459795,9.187949,369,4.6,4
Il Vizio,45.4659517,9.192283999999999,24,4.5,
Sushi 189,45.4557698,9.180595799999999,7,4.1,
Al PaNino,45.4468489,9.2105152,1,5,
Chiosco Maradona,45.4478728,9.184028,364,4.4,
PANINARO GeG GABRIELE,45.43623669999999,9.200757399999999,1,5,
Chiosco Cerulli • street food,45.4661046,9.1550048,14,2.6,
Milano Kebab,45.4755134,9.1843718,93,4.2,
Bosforo Kebap Pizza,45.453822,9.1959953,31,4.9,
Kebabbar Navigli,45.45272809999999,9.1733466,105,4.8,
Mister Burger,45.4521608,9.2161479,6,5,
Il Gelato Lo Yogurt La Frutta,45.458896,9.1782814,1,5,
Artico Gelateria Tradizionale,45.4632046,9.1894516,743,4.4,2
Casa Del Gelato,45.45700189999999,9.199324299999999,31,4,
DASSIE Gelato - Milano,45.4720073,9.1830797,48,4.8,
Venchi Cioccolato e Gelato,45.46523759999999,9.1886659,1169,4.7,
Gelato,45.4667199,9.198639199999999,0,0,
Pavé - Gelati&Granite,45.4628258,9.2006134,829,4.6,2
Gelato Libre - DOMORI,45.4656017,9.1751696,99,4.5,
Amorino gelato,45.4719798,9.185767199999999,1090,3.9,2
“Gelato e Champagne” - Cerdini & Quenardel dal 1906,45.4688654,9.183861499999999,208,4.6,
Venchi Cioccolato e Gelato - Milano Cadorna,45.467937,9.175419,721,4.5,
"Venchi Cioccolato e Gelato, Milano Via Dante",45.4662855,9.1846266,1580,4.6,
Mastri Artigiani del Gelato,45.4565542,9.1742347,404,4.4,2
L'isola Senza Glutine,45.5095716,9.2020204,126,4.5,
Zero Glutine Life Milano,45.4676679,9.1353225,65,4.7,
Govinda,45.4619728,9.1854295,358,4.4,
Dream Poke,45.46241759999999,9.1875593,168,4.6,
Fa-bìo,45.463116,9.1843611,74,4.6,2
Tin Bòta,45.4625137,9.1835702,237,4.5,1
Naturalmente,45.4691503,9.186746,41,4.2,
Poke Away - Hawaiian and Ceviche Bowls,45.4627524,9.1933741,181,4.4,
Poke House - Brera,45.468579,9.185376999999999,508,4.2,2
Ristorante Orto Urbano,45.4630774,9.189170599999999,125,4.1,
Yuan Duomo,45.4615965,9.1893163,985,4.1,1
Sugar,45.4683381,9.172818399999999,610,4.4,3
Pasticceria Martesana Porta Romana,45.4526002,9.2017496,38,4.5,
AYASOFYA TURKISH KEBAP,45.47742299999999,9.185531899999999,281,4.3,1
Turkish Istanbul,45.4744778,9.208828,119,4,1
"""DAVET"" TURKISH KEBAP PIZZERIA - GRILL",45.4538054,9.1700964,375,4.5,1
Tekei Sushi,45.46202539999999,9.2135736,48,4.4,
Yang Sushi and Fusion,45.485574,9.197614,1149,4.3,2
MIsushi Restaurant,45.4519148,9.184107599999999,682,4.3,2
Umi Sushi,45.4892957,9.2054431,624,4.2,2
Shiny Sushi Japanese Restaurant,45.4707101,9.2223761,813,4.2,2
Sushi Daily Milano Gramsci,45.4814384,9.169325299999999,1,2,
En Sushi Asian,45.4620931,9.218008099999999,4,2.8,
Lan Sushi,45.4573977,9.175166299999999,4,3.8,
Yu Hu,45.4971541,9.170487399999999,172,4.2,
IPPO Sushi Boutique (Castaldi),45.47711839999999,9.2023125,67,4.5,
Sushi Cube,45.4832224,9.204705299999999,300,4.5,2
Sushi II,45.4661834,9.2111156,736,4,2
Sushi Daily Milano Clotilde,45.4804853,9.1929442,18,4.4,
Wamiya Sushi Take Away,45.4911495,9.149671,33,4.4,
LA BOUTIQUE DEL GRANO,45.49854149999999,9.1698582,5,5,
Panetteria Pasticceria Di Foglic,45.49053869999999,9.151857999999999,11,1.5,
STEAKHOUSE,45.49889340000001,9.1842869,7,2,
Da Mario Steak House,45.4761776,9.1442088,188,4.5,
Il limite Schianchi Food Hall,45.45649479999999,9.1873905,2,4,
B Restaurant,45.4631842,9.182856,285,3.9,2
Forte Restaurant,45.48105229999999,9.190011499999999,315,4.8,
Impronta Birraia - Birreria Artigianale - Pub Milano,45.4706559,9.246028599999999,2700,4.2,2
Sushi Daily Milano Monza 134,45.5024302,9.2217976,12,4.3,
Tea and Rolls Sushi,45.4367486,9.241465,79,3.9,2
Alvin’s Pastries,45.4951057,9.2070816,926,4.3,2
Christian Pastries,45.495456,9.2214894,625,4,1
La Bombonera Sport Pub,45.4691961,9.2066138,75,4.9,
The Walrus Pub Milano,45.4530082,9.1721987,131,4.6,2
Buttiga Beer Room,45.4809991,9.1702551,1167,4.5,2
La Buttiga Franco's Room,45.4483465,9.1866741,70,4.8,
Pasta & Mi,45.5038406,9.1657798,88,4.4,
Mani in Pasta,45.5036798,9.2396897,812,4.2,2
AL 130 Beer&More,45.4382723,9.2000956,346,4.3,1
DOBERMANN Pub - Milano,45.4863104,9.225596399999999,106,4.4,2
Il Negozietto del Gelato,45.45166,9.177666000000002,245,4.7,1
Caffettino,45.470848,9.2010988,3,2,
CAFE' CLAN,45.47142059999999,9.183845999999999,1,4,
All American Diner,45.4357861,9.2339194,2983,4.2,2
Route 66 American Diner,45.47227050000001,9.2234202,675,4.2,2
God Save the Food,45.4526877,9.1655076,1484,3.8,2
Jol Khabar Resturent,45.4836513,9.209888,2,5,
Ristorante Star Royal,45.4598841,9.1653935,3,4.7,
SPECIAL Hamburger & Italian Fast Food,45.4762043,9.2037586,395,4,2
KD House,45.49087919999999,9.1889235,307,4.7,2
BlackOut Burgers,45.4669535,9.1519814,46,4.5,
Burgez,45.4742151,9.214941099999999,514,4,
Milano Italy,45.46230730000001,9.2192723,0,0,
Viaggi nel Gusto,45.4587697,9.1782302,380,4.5,
Halal Griglieria Hamburger kebab,45.4506167,9.1380848,27,4.7,
Ristorante Tropicale,45.4960032,9.2296124,52,4.5,
Blu Blu Blu,45.4626108,9.2091035,613,4.1,2
Panino Giusto,45.4659395,9.1987852,2031,4,2
La Farcia Milano,45.4659308,9.183872599999999,45,4.7,1
Antica Salumeria Laghetto,45.4615951,9.1956683,15,4.7,
Molino25,45.4565992,9.1838436,12,4,
Sbunda Colonne,45.4583731,9.1845115,61,4.9,
Piadineria Artigianale,45.4596704,9.1886782,194,4.3,1
Osteria di Angela,45.450076,9.1967795,10,5,
Double B,45.5066181,9.1963611,27,3.4,
Sofia Kitchen & Bar,45.4559011,9.1876748,4,5,
KUSINA ni LODI,45.4443247,9.2145958,233,4.8,1
Burgez,45.48120369999999,9.1873325,215,3.9,
The Box eat and drink,45.4568515,9.170090799999999,15,4.9,
Luckymo Restaurant,45.4588931,9.1708453,7,3.9,
Pastry café Romeo,45.4622605,9.137573,605,4.2,2
Bar Dolly,45.4630824,9.1864809,217,3.4,
Bar Duomo,45.4638382,9.193251900000002,222,3.3,2
Bar Charlie,45.450505,9.2023853,271,4.1,2
Grand Lounge & Bar,45.4640003,9.193494,0,0,
Pezzotti Bar,45.4423332,9.1832686,27,4.3,
Bar Scarlatti,45.4832513,9.2084877,41,4.2,
Roxy Bar,45.4489875,9.1625254,86,4.6,1
Il Bar in Piazza Duomo,45.4647826,9.1918657,403,3.3,3
Vogue Bar,45.4570787,9.1836521,79,4.6,
Grand Lounge & Bar,45.4644347,9.194299899999999,0,0,
Panificio Bread.Bakery.Coffee - 1958,45.4551871,9.2165934,27,4.1,
Rombon Bakery,45.4863244,9.239821,37,4.5,
DeliBakery,45.4944392,9.1959377,36,4.6,
Santa Marina Bakery,45.4942563,9.1853468,49,4.3,
Family Bakery Pietro&Milena,45.4987095,9.184134,89,4.1,
Oveja Negra Milano - Tapas e Paella,45.4709132,9.242651799999999,172,4.6,2
Bar Velasca,45.4600728,9.1911007,39,4.2,
Sushi Sashimi Take Away,45.4538851,9.158134,327,4.1,2
UMA Sushi,45.4785928,9.2037669,525,4,2
Sushi Hu Xi,45.4867371,9.1594567,1,3,
Malibu cocktail bar,45.4759049,9.2049585,9,4.7,
Fames,45.4762379,9.205820899999999,34,4.1,1
Bar la darsena,45.4516815,9.1801874,55,4.2,
Bar Tabacchi,45.45957850000001,9.2072851,3,3.3,
Bar Turati,45.4738778,9.195055,222,4.1,2
Santa Marta Bar Tabacchi,45.4622908,9.183566899999999,52,4.2,
Fresca Pasta Club,45.50444599999999,9.2053558,14,4.7,
EIMI Sushi,45.4556569,9.2040931,713,4.2,1
Ishi Fushion,45.4541384,9.1803405,1065,4.3,2
Sushi etc.,45.4733686,9.195604999999999,55,4.2,2
ONO Sushi Experience,45.4778028,9.2058102,2515,4.1,2
SUSHI COMPANY SRL,45.477811,9.1986771,4,4.5,
Sushi Kòbbo,45.4778062,9.1987438,1021,4.2,2
Nara Sushi Restaurant,45.47902209999999,9.2028683,3021,4,2
Ichiro ramen & sushi,45.4626475,9.1730053,112,4,
Wagamama,45.46666339999999,9.195187599999999,1831,3.9,2
Serafini Bakery and Pastry Shop,45.455614,9.195526800000001,92,3.6,
La Baloss,45.4729768,9.2067821,20,4.9,
Pasticceria Bligné,45.4510733,9.195199299999999,48,4.7,
Giacomo Pasticceria,45.4655687,9.2083142,148,4.3,
Steak it Easy,45.455724,9.196507,91,4.9,
Carni&Co,45.4576338,9.205403,134,4.3,
Bar Eritrea,45.4776183,9.2031074,22,4.1,
Zinc Bar,45.4466513,9.1959806,306,4.5,2
Original Pizza Ok,45.4620076,9.195063,889,3.8,2
Alice Pizza,45.4760779,9.2077134,618,3.9,2
Alice Pizza Buenos Aires,45.4852983,9.2156063,423,4.2,2
Pizza Love,45.471984,9.185410100000002,52,4.1,
Alice Pizza,45.4439183,9.178975699999999,5,3.8,
Gino Sorbillo - Pizza Gourmand,45.4651864,9.190684899999999,2999,4.1,2
The Bakery Milano,45.4397414,9.2233363,69,3.9,
Costa Bakery,45.492389,9.1922996,182,4.3,1
McDonald's Milano XXIV Maggio,45.4531747,9.1804408,2950,3.5,1
Italian Bakery Gae Aulenti,45.4838432,9.1890204,102,3.6,
BioToBe,45.4830272,9.1985793,34,4.6,
Bar Cairoli,45.4680677,9.1826294,10,2.5,
Bar Tabacchi Sant'Alessandro,45.4611087,9.186195699999999,129,3.3,
Treves Bar,45.4751614,9.1871318,87,4.1,
Bar New Deal,45.4637235,9.204682199999999,45,4.3,
Bar Miliardo,45.4629256,9.1870278,49,4.1,
Chiosco Bar,45.4720057,9.1824709,1,5,
Bar Cuore Milano,45.4589484,9.180602799999999,280,4,2
Bar,45.4563534,9.1956008,4,3.8,
Baxter Bar,45.46328140000001,9.196934599999999,31,4.8,
Bar del Corso,45.460295,9.1890509,27,4.6,
Bar Duomo,45.4645968,9.188307199999999,190,3,
Sadler Restaurant,45.4726831,9.192505200000001,473,4.6,4
La Piadineria,45.4585622,9.191622599999999,34,4.2,1
Shalimar,45.458543,9.1922572,481,4,1
Il Felice,45.468533,9.210875099999999,641,4.4,2
Bar Metro Buon Giorno,45.4645693,9.1925072,8,4.8,
Mio Lab,45.4653718,9.1891681,90,4.4,
Bar Rivoli,45.4667137,9.1988202,191,3,2
Bar Al Panino,45.4654329,9.193242099999999,16,3,
Sartoria della Pasta,45.4620253,9.211782699999999,24,4.9,
T'amo Pasta,45.44846829999999,9.2120351,64,3.6,
Solo Crudo,45.4816373,9.197281400000001,383,4.3,2
Insalaty,45.4568271,9.204964499999999,13,2.7,
Fluid Fresh Food,45.47335530000001,9.1955985,46,4.2,
Turkish Kebap,45.4443257,9.1671832,90,3.7,
Istanbul Papiniano,45.4566927,9.172590399999999,44,4.4,
Kebhouze - Sarpi,45.4810957,9.1729822,550,4,
Alice Pizza Via Orefici,45.4639388,9.1877259,178,3.8,
Romoletto Street Food,45.45925320000001,9.181,248,4.6,2
Johnny Take Uè Milano Regina Margherita 1,45.4575031,9.2043462,575,4.3,2
Alice Pizza San Vittore,45.4623565,9.1733283,110,4.3,2
CONFINE - PIZZA E CANTINA,45.4616475,9.1814722,48,4.5,
Morso Burger,45.4753895,9.1887536,150,4,
La Filetteria Italiana Navigli,45.4487913,9.1616634,1410,4.3,3
PitBeef Milano,45.4855321,9.189504399999999,260,4.9,
Panini di Mare Bistrot - Milano Ticinese,45.4573068,9.180289199999999,217,4.7,2
Pescheria I Pesciolini - Milano,45.4573662,9.194160799999999,417,4,3
Ristorante Il Faro,45.4565033,9.176352,662,4.6,2
Vento di Sardegna,45.4603386,9.1756954,1215,4.5,2
Zio Pesce,45.457168,9.1768345,1019,4.4,2
Mar'è [il Buon Gusto] Ristorante,45.4629032,9.199226699999999,216,4.5,3
Il Grecale - Sapori Mediterranei,45.4552431,9.1894624,3,2.7,
SushiArt - Milano,45.4766657,9.188822499999999,279,4.4,2
Hattori Hanzo - cocktail & sushi,45.4518782,9.1795551,230,4.6,
My Sushi,45.4582187,9.1771443,0,0,
Kumo Sushi Bar,45.4560735,9.1964659,170,3.4,1
SushiArt - Milano Turati,45.4750012,9.1944944,0,0,
Sengyo Sushi,45.4576023,9.2065357,57,4.7,
Pescheria Virgilio,45.4679851,9.173737299999999,51,4.2,
Di mare in meglio,45.4521205,9.203320699999999,1,5,
El Pecà,45.4549708,9.199199,190,4.5,
L'Angolo di Casa,45.4709827,9.2065109,553,4.4,3
Al Porto,45.4555188,9.1733175,850,4.6,3
Ristorante Gli Orti del Belvedere,45.4548759,9.1999622,449,4.4,2
Salad House - Sant'Ambrogio,45.4646561,9.176428,78,4.6,
King Of Salads Milano,45.4600261,9.1818976,8,4.3,
FRESHED.,45.4464826,9.1818803,14,5,
Fresh Cut- Milano,45.4759286,9.1949782,35,4.2,
Factory Bowls & Salads,45.4580997,9.189832,13,1,
Fresh Cut - Viale Bligny,45.4511332,9.188772199999999,16,4.3,
Salad House - Duomo,45.4627471,9.1931034,121,4.3,
VIVA | BuonoFrescoNaturale - Duomo,45.4595693,9.179216,72,4.5,2
Green Day Natural Food & Bar,45.4600261,9.1818976,56,3.8,
VIVA | BuonoFrescoNaturale - Lodovica,45.4518048,9.1862198,142,4.2,2
Viva | BuonoFrescoNaturale - Crocetta,45.4560262,9.1954463,536,4.1,2
Juice Bar,45.46614,9.191806999999999,815,3.7,2
Frankie's,45.4555928,9.180773499999999,252,4.4,
Italian Creative Salad,45.4519077,9.20762,39,5,
Greens & Grains,45.4558551,9.204423,11,4.6,
Fruit&Salad,45.4619507,9.1845628,18,4.9,
Peck,45.4635131,9.1869525,4036,4.4,4
Healthy Color - Moscova,45.4775533,9.185028599999999,271,4.1,2
Panini Durini,45.4681396,9.1905431,232,3.9,2
Willy's Burger,45.47723999999999,9.20141,247,4.6,
Al PaNino,45.4468489,9.2105152,1,5,
Chiosco Maradona,45.4478728,9.184028,364,4.4,
PANINARO GeG GABRIELE,45.43623669999999,9.200757399999999,1,5,
Chiosco Cerulli • street food,45.4661046,9.1550048,14,2.6,
Panino Giusto,45.4600845,9.1814328,903,4,2
Paninoteca,45.4787982,9.2032749,2,2,
Panini Durini,45.4652563,9.1884236,863,4.1,2
Panino Giusto,45.4798508,9.1861666,707,3.8,2
Bar Paninoteca Unione,45.46228139999999,9.1873534,192,4.2,
Panino Giusto,45.4858284,9.203481199999999,569,3.5,2
Panini De Santis - Milano,45.4655889,9.1797942,921,4.4,2
Sir Sandwich,45.43707200000001,9.210478,75,4,
Putìa - Panini Terroni,45.465043,9.1768653,0,0,
Paninoteca al 19,45.447565,9.182657299999999,55,4.6,
Panino Giusto,45.4531984,9.179637099999999,450,3.8,2
Silvia pane,45.45996770000001,9.184132300000002,0,0,
Al Politico,45.4688188,9.180332,714,4.7,1
Panini De Santis Milano c/o La Rinascente,45.4651917,9.191706,72,3.2,
Marcellino il Sarto del Panino,45.4814833,9.203316,208,4.6,
Panini Durini,45.4641386,9.1873706,676,3.9,2
CIBO' Vegan food,45.476204,9.2160633,313,4.1,2
Nana Veg Kitchen,45.458113,9.1612489,25,5,
Flower Burger,45.4740791,9.183589,404,4.6,2
VegAmore,45.4497006,9.2024419,479,4.5,1
Neat Burger Italia,45.46323599999999,9.181384399999999,0,0,
Artisti del Vegetariano,45.46574529999999,9.1803552,48,3.4,
Alhambra Risto veg,45.4784196,9.206368500000002,1160,4.5,1
Flower Burger,45.4538745,9.1687839,1188,4.5,2
BioToBe,45.4830272,9.1985793,34,4.6,
La Vecchia Latteria,45.4623426,9.1871154,320,3.9,2
Flower Burger,45.4759439,9.202726199999999,2287,4.5,2
Radicetonda,45.4495182,9.2069942,318,4.3,2
La Colubrina,45.4773693,9.206431,873,4.4,2
Joia,45.4771761,9.2018869,905,4.5,4
Artisti del Vegetariano Milano,45.4699055,9.1848154,416,4.1,
MiBiò Bistrot Milano,45.4534955,9.1569415,215,4.5,
Bistrò 23 La gastronomia naturale,45.4900239,9.164545799999999,15,4.8,
Radicetonda,45.475953,9.207459,767,4.1,2
Flower Burger,45.5220831,9.2159078,204,4.5,2
Base V Juicery,45.4865715,9.203565,38,4.4,
Panghea Ristorante,45.4509959,9.173627699999999,800,4,2
Green Bar,45.3844998,9.1730889,33,5,
Bun Burgers - Bligny,45.4510481,9.1914113,203,3.8,
Bun Burgers - Dell'Orso,45.4690675,9.1855453,382,4,
Willy's Burger - Tema Parodico Casa di Carta,45.477615,9.216864300000001,672,4.4,2
Burger Italy Milano,45.4896003,9.1860874,596,4,2
Hamburgers,45.4683041,9.1766952,6,4.3,
Cow Burger,45.4481796,9.197645699999999,218,4.4,2
Burger Wave,45.4472193,9.1771313,1078,4.4,2
Margy Burger,45.4623138,9.194227099999999,1738,4.4,1
Bun Burgers - Iulm,45.4432517,9.1630598,51,3.8,
Fatto Bene Burger,45.4676728,9.155517000000001,1121,4.1,2
Bun Burgers - Porta Venezia,45.4761952,9.207569699999999,263,3.6,
theLab - Unconventional Burger Experience,45.4656682,9.208868899999999,743,4.5,2
Burgez,45.4591403,9.1809922,395,3.8,
Tripburger,45.4824442,9.1970017,824,4.5,2
StrEat -Burger Bar & Restaurant,45.4575117,9.161088399999999,403,4.4,2
Burger King,45.4648958,9.1903434,3218,3.7,1
Mister Burger,45.4521608,9.2161479,6,5,
Fatto Bene Burger Monti,45.4720722,9.1680928,590,4.2,2
sweetburger - Navigli,45.4530501,9.180753200000002,447,4.7,
LE COLONNE GELATI & CREPES FAMOSE,45.456494,9.1808689,841,4.5,2
GelaCreperia,45.4520278,9.176747299999999,220,4.5,1
Maison Bretonne,45.481015,9.166811599999999,901,4.5,2
"MAGOLOSA - Gelateria, Crêpes, Wine Bar",45.4585963,9.149125999999999,226,4.7,
Cocotte Jolie,45.4597141,9.1800932,126,4.5,2
Crêperie,45.480942,9.1668015,7,4.7,
Viel Gelati Milano - Dal 1948 con voi,45.4774658,9.2078239,1037,4.2,2
Todo Modo,45.5033794,9.1614279,639,4.3,1
Rinomata Gelateria,45.4521633,9.1774955,203,3.9,
Cheers Pub,45.488693,9.2254834,1922,4.4,1
Pils Pub,45.4772821,9.1746129,1073,4.1,2
Old Fox Pub,45.4586775,9.1705974,1405,3.9,1
Shatarpub,45.4725753,9.1428651,436,4.3,2
Pogue Mahone's Irish Pub,45.4506738,9.2039245,2057,4.3,2
The Ghost Pub,45.4985225,9.1863672,863,4.2,2
Beer Garage pub,45.4975737,9.2327806,367,4.3,1
I Beerbanti Pub,45.4537761,9.1578567,461,4,1
Pick 'n roll sport pub,45.4963913,9.1409256,121,4.5,1
Bootleg Pub,45.4638668,9.1604428,653,4.5,2
Irish Pub Mulligans & Whisky Bar,45.4894691,9.1675831,1128,4.5,2
Guinness Harp Pub,45.4773533,9.2255221,990,4.4,2
Tin Whistle,45.4451884,9.1445961,340,4.4,2
O'Connell Irish Pub Milano Brera,45.4696752,9.1879469,1030,4,
Impronta Birraia - Birreria Artigianale - Pub Milano,45.4706559,9.246028599999999,2700,4.2,2
Scott Duff Pub,45.479847,9.18323,1081,4.3,2
The Friends Pub Milano,45.4801852,9.193398499999999,1929,4.4,2
Brasserie Bruxelles Pub,45.4787644,9.2167219,1368,4.2,2
Iron Birds Pub,45.51989649999999,9.2266515,245,4.4,
Matricola Pub,45.4756813,9.2234077,1999,4,2
"My Heart - Pizze, Hamburger e Piadine Gluten-Free e Lactose-Free",45.4618762,9.209632,259,4.4,
L'isola Senza Glutine,45.5095716,9.2020204,126,4.5,
Spiga Amica - Prodotti Freschi Senza Glutine,45.457857,9.1620931,48,4.7,2
GluFree Bakery,45.4564514,9.2022572,740,4.5,2
Be Bop,45.4520194,9.1823056,1875,4.3,2
PanPerMe - senza glutine a Milano,45.4593062,9.2065865,559,4.4,2
Wad,45.4665262,9.195240499999999,0,0,
Officine Del Dolce - Pasticceria gluten free e Gelateria,45.4440302,9.2150582,259,4.2,2
Mama Eat,45.4835646,9.1702621,1506,4.1,2
Bontà senza Glutine,45.4411322,9.1519034,46,4.3,
Spontini - Gluten Free,45.4526113,9.1762102,616,3.7,1
Officina Zero,45.4857385,9.214173299999999,558,4.5,2
Mamastreat,45.4854827,9.2162873,93,4.6,1
Food Senza Glutine Srl Franchising,45.48719639999999,9.2031581,2,3,
Zero Glutine Life Milano,45.4676679,9.1353225,65,4.7,
"Ristorante Pizzeria Oasi, carne, pesce, pizza, pizza senza glutine, pizza senza lattosio e pizze Vegane",45.49478389999999,9.140692099999999,651,3.9,1
Le Specialità,45.46284499999999,9.2104783,980,3.7,3
Il Diamante - Ristorante Grill Pizzeria - Senza Glutine - Milano,45.4493751,9.136653899999999,589,4.3,2
PUB AL PANINO - MILANO,45.48052,9.1850981,556,4.4,2
AL 130 Beer&More,45.4382723,9.2000956,346,4.3,1
DOBERMANN Pub - Milano,45.4863104,9.225596399999999,106,4.4,2
BLUES CANAL,45.451474,9.170964,2739,4.3,2
Bar & Pub La Comida da Jenny Milano,45.4758889,9.2006616,87,4.5,
ILK Kebap,45.4646467,9.1871776,178,3.9,
Turkish Kebab,45.498844,9.144114499999999,12,4.1,
Papiniano Pizzeria Kebab Milano,45.4567504,9.172498299999999,282,4.2,1
Mevlana Kebab,45.4848915,9.215653099999999,47,4.1,
Turkish Kebab,45.4556166,9.1968411,96,4.1,1
Pizza Kebab San Gottardo,45.450332,9.1800151,227,4.1,1
Lodi Kebab & Pizza,45.4485763,9.2076487,187,4.2,1
Bocconi Turkish Pizzeria Kebap,45.45082490000001,9.1928041,139,4.1,1
Royal Turkish Kebap - Pizza,45.4749545,9.205974399999999,327,4.4,1
TURKISH KEBAB PİZZA,45.4510593,9.197935,12,4.8,
İstanbul,45.4560091,9.1808456,2,5,
ATA Kebab Pizza,45.4557936,9.1964854,94,4,1
TURKISH KEBAB PİZZA,45.45926799999999,9.1778284,34,4.8,
Turkish Kebap Borsieri 28,45.488756,9.189146,346,4.4,1
Pizzeria kebab jerusalem,45.4767028,9.2054032,15,4.9,
İstanbul Girasole Kebap,45.4915776,9.2181435,112,4.3,1
Turkish Kebab,45.4945003,9.2073758,50,3.3,1
Döner Club Kebab,45.4586096,9.2065007,113,4.4,
Kebab e pizza Garibaldi,45.481883,9.183611599999999,154,3.7,
Kebapçi turksse,45.43672189999999,9.2140466,75,4.5,
Bakery Pastry Di Lorenzo Vailati Vailati,45.4808667,9.2091428,353,4.2,
Sweet Island pastry and food,45.4898672,9.189898999999999,5,4,
Bakery - Pastry Giordano Alfredo Riccardo,45.4718705,9.203582899999999,21,4.9,2
Panarello,45.4628781,9.187949999999999,210,4.5,2
Alvin’s Pastries,45.4951057,9.2070816,926,4.3,2
DOLCELINO Pasticceria Milano,45.4590839,9.2111188,90,4.6,2
Panificio Col di Lana,45.4522351,9.1826036,4,4.5,
The Sweet Traditions,45.48812299999999,9.2265522,283,4.3,2
Pastry Luca Milano,45.4565357,9.162294,175,4.6,2
PastiChéri,45.480574,9.171005,357,4.1,2
Fidel's Bakery,45.490569,9.221133199999999,90,4.2,
The King's Italian Bakery,45.4780749,9.2034666,412,4.4,2
Coffee Pastry Scaringi,45.48142929999999,9.2262798,586,4.1,2
L.Z. Chinese Pastry Shop,45.4874696,9.218680299999999,72,4.6,1
Christian Pastries,45.495456,9.2214894,625,4,1
Pica Pasticcerie Milano,45.4804756,9.2122393,162,4.6,
Martesana Pastry Shop,45.4810459,9.1705767,957,4.2,2
Spùn Tiramisù,45.4637229,9.1872327,571,4.9,
Pasticceria,45.45496540000001,9.1543458,135,4.5,2
Panetteria Pasticceria Di Foglic,45.49053869999999,9.151857999999999,11,1.5,
Neko Bento&Ramen,45.4617006,9.1883909,193,4.7,
Ramen Shifu Monte Nero,45.4578925,9.2060631,189,4.7,
Wagamama,45.46666339999999,9.195187599999999,1831,3.9,2
Pasta d’Autore,45.4587585,9.1809426,2000,4.5,2
Un'Altra Pasta,45.4619362,9.1941008,1018,4.6,1
Pizza & Pasta,45.4655867,9.1999113,12,2.2,
Pasto - Laboratorio di pasta con cucina,45.4626825,9.1843978,967,4.7,1
La Corte di San Maurilio Ristorante pizzeria duomo Milano,45.4618541,9.184636099999999,711,4,2
Pausa Your Italian Break,45.459293,9.1784488,292,4.6,
ALDENTE Pastabar - Bocconi,45.4515216,9.188408899999999,118,4.4,
Galleria Restaurant,45.4660612,9.1899193,3101,4.5,3
ALDENTE Pastabar - Cordusio,45.4673206,9.1858501,600,3.9,2
éPasta the Italian food,45.4631196,9.176414099999999,37,4.1,
Pasta Fresca Brambilla - Bistrot e Laboratorio,45.4724637,9.210194699999999,306,4.5,2
The FisherMan Pasta,45.4727366,9.184035000000002,741,4.3,
Mare in pasta - Darsena,45.4551522,9.1733614,608,3.9,2
Salsamenteria di Parma San Babila,45.4664893,9.195311799999999,1840,4.3,2
Obicà Mozzarella Bar - Duomo,45.46484280000001,9.1921017,2466,3.9,2
"'Gnulot, Pasta Fresca",45.4618171,9.2040639,102,4.4,
Venice Ristorante Pizzeria,45.4749434,9.2059631,802,4.3,2
Pastamadre,45.451588,9.2051911,651,4.2,2
The Meatball Family,45.453186,9.17224,1608,4.4,2
Da Regina 1985,45.4649922,9.1890515,2230,4,2
PRAY FOR BURGER - 100% plant based,45.479037,9.202821799999999,80,4.6,
Self bar,45.4776631,9.1768096,0,0,
Caffè Vergnano 1882,45.4628781,9.187949999999999,463,4,2
Orsonero Coffee,45.4777466,9.2113014,1308,4.7,2
NOWHERE - Coffee & Community,45.4598911,9.176891099999999,567,4.7,
Mediolan City,45.4839588,9.2061201,0,0,
Prince Coffee Shop,45.4819948,9.213040600000001,67,4.4,
The Pure Café,45.480128,9.1833713,143,4.8,
12oz Coffee Joint,45.4661873,9.1761986,212,3.9,2
Caffè Vergnano 1882,45.480546,9.188106699999999,9,3.6,2
Starbucks Reserve Roastery,45.4649459,9.1861863,18251,4.4,2
Amadeus Coffee & Shop,45.45878279999999,9.1809274,9,3.3,
DZ coffee shop,45.4749694,9.2203203,14,4.6,
Segafredo Caffè - Coffee Shop SZWW,45.4857054,9.204576699999999,6,3.2,1
Ice & Coffee,45.4603889,9.1907274,115,4.1,2
Deming coffee shop,45.5234786,9.2124396,0,0,
Caffè Milano,45.4945811,9.219440299999999,54,4.7,
Coffee Break,45.4338684,9.200888299999999,16,4.1,
12oz Coffee Joint,45.4636244,9.18911,747,3.8,2
Caffè Vergnano 1882,45.465095,9.197464499999999,59,4.2,2
COFFEE TIME,45.4452905,9.2140297,2,3.5,1
STEAKHOUSE,45.49889340000001,9.1842869,7,2,
Be Steak,45.4649454,9.1919296,69,4.2,
Roadhouse Milano Via Larga,45.462877,9.1960226,621,4,2
STK Milan,45.4793432,9.1962972,506,4.4,4
Rare GrillHouse,45.4199425,9.258526,1023,4,2
Old Wild West,45.4763911,9.1710566,1716,3.9,2
Roadhouse Meatery,45.478398,9.1542658,1714,3.9,2
Roadhouse Restaurant Milano Centrale,45.486424,9.2039711,1548,3.7,2
ROADHOUSE RESTAURANT ROZZANO,45.3931954,9.1502611,2927,3.7,2
The Brisket,45.45056690000001,9.1700985,1308,4.4,2
Skuisito SteakHouse & WineBar,45.4815581,9.2278375,1042,4.3,2
La Filetteria Italiana Garibaldi,45.47272,9.1836459,1653,4,3
ROADHOUSE RESTAURANT ASSAGO,45.4038615,9.1532141,1458,3.7,2
Old Wild West,45.4450773,9.161671,1644,3.8,2
Old Wild West Milano Colonne,45.4577098,9.1814096,1080,4,2
La Filetteria Italiana Oberdan,45.4747649,9.205912399999999,540,4.1,
Da Mario Steak House,45.4761776,9.1442088,188,4.5,
El Carnicero,45.4788873,9.1858256,1197,4.3,3
Old Wild West,45.4914595,9.1917744,1073,3.8,2
Steak Hause Milano S.R.L.,45.4839395,9.1814734,0,0,
Pescatore Lobster Bar,45.4494879,9.198254,19,4.7,
Langosteria,45.4556502,9.1685857,1797,4.6,4
Fishbar De Milan,45.4752981,9.189119,401,4.2,3
The Fish Ristopescheria - Milano,45.4666922,9.2100821,933,4.2,2
Lobster & More Trattoria,45.4755619,9.1840785,421,4.2,
Marea Seafood & Beverage,45.4590616,9.1825637,160,4.8,
La Taverna Del Pesce Ballerino - Fish Dancer,45.4817141,9.1967973,3077,4.1,2
Marecrudo,45.4524734,9.2012694,314,4.4,3
Pescetto,45.4794791,9.1834747,2304,4.4,2
BATEY cevicheria urbana,45.4655996,9.21647,62,4.5,
Langosteria Bistrot,45.4553894,9.1710514,1693,4.6,4
Shannara 3,45.4493814,9.1997827,494,4.3,2
Trattoria del Pescatore,45.4495211,9.1983629,1586,4.5,2
L'Officina Del Pesce,45.48001989999999,9.1844301,240,4.3,
OYSTER BAR,45.4647639,9.2099726,69,3.9,
Forte Restaurant,45.48105229999999,9.190011499999999,315,4.8,
Glauco,45.47651399999999,9.216179499999999,221,4.4,4
CÖRAL Restaurant,45.45976659999999,9.176656099999999,56,4.5,
La Risacca Blu,45.477249,9.2059128,317,4.2,3
AL 130 Sweets&More,45.4382425,9.2001037,189,4.2,2
Veganfruttariano - Sound of '70s,45.5020135,9.175999599999999,306,4.1,2
Di mare in meglio,45.4521205,9.203320699999999,1,5,
Vento di Sardegna,45.4603386,9.1756954,1215,4.5,2
Pescheria Virgilio,45.4679851,9.173737299999999,51,4.2,
Andry,45.4674449,9.184529999999999,687,4.4,2
Zio Pesce,45.457647,9.207844699999999,1099,4.3,2
Ristorante Il Faro,45.4565033,9.176352,662,4.6,2
Zio Pesce,45.457168,9.1768345,1019,4.4,2
Al Porto,45.4555188,9.1733175,850,4.6,3
L'Angolo di Casa,45.4709827,9.2065109,553,4.4,3
Pisco Cucina di Mare,45.4764461,9.173260899999999,308,4.3,
Il Grecale - Sapori Mediterranei,45.4552431,9.1894624,3,2.7,
Coffee Bean,45.3979708,9.1467764,116,3.8,1
Sushi 189,45.4557698,9.180595799999999,7,4.1,
Urban Sushi,45.466808,9.2003263,52,4.6,
MIsushi Restaurant,45.4519148,9.184107599999999,682,4.3,2
Lan Sushi,45.4573977,9.175166299999999,4,3.8,
Zen Sushi,45.4596704,9.1886782,553,4.4,3
Yokohama Sushi Restaurant,45.4597353,9.1915214,1219,4.5,2
Sushi Li,45.4615932,9.1876948,653,4.5,2
Nami Milano,45.4596879,9.181047999999999,261,4.3,2
EIMI Sushi,45.4556569,9.2040931,713,4.2,1
Ishi Fushion,45.4541384,9.1803405,1065,4.3,2
Sushi etc.,45.4733686,9.195604999999999,55,4.2,2
Hanabi Milan Sushi Restaurant,45.4611232,9.196641099999999,676,4,2
Sensei Fusion Milano-All You Can Eat-Colonne San Lorenzo,45.4596494,9.1794329,859,3.9,1
My Sushi,45.4582187,9.1771443,0,0,
Kumo Sushi Bar,45.4560735,9.1964659,170,3.4,1
Cinquantadue,45.4712655,9.1825567,173,4.5,
SushiArt - Milano Turati,45.4750012,9.1944944,0,0,
Hattori Hanzo - cocktail & sushi,45.4518782,9.1795551,230,4.6,
Sengyo Sushi,45.4576023,9.2065357,57,4.7,
NIMA Sushi,45.4607213,9.1899561,367,3.5,2
Smokery by Roadhouse Via Negri,45.465295,9.1845459,1,2,
Princi,45.4629919,9.1879952,2942,4.2,2
Italian Bakery,45.47679,9.2095406,269,4.4,2
Amore Sicilian Bakery,45.471695,9.1670135,196,4.7,
Panetteria Mercato,45.4713161,9.1844377,53,4.8,
Sayedein Bakery,45.457548,9.206695,20,4.9,
Bakery 59 Milano,45.4795576,9.1726099,10,3.8,
Peter Pan Bakery Milano,45.4529311,9.172769299999999,32,4.7,
Panificio Martina Bakery & Coffee,45.4807463,9.169354499999999,20,4.8,
NATURAL BAKERY PANETTERIE DAMIANI VIA MOLINO DELLE ARMI 31 MILANO,45.45677269999999,9.1831399,18,4.4,
Bakery Galantino Giovanna,45.4538756,9.2038175,37,4.4,2
The Bread Bin,45.45804589999999,9.1720711,34,4.1,
Il Pane di Luca Bakery & coffee,45.4575202,9.2125048,74,4.5,
Sophia Bakery,45.4580756,9.170279400000002,45,4.2,
Carnelli's Bakery,45.455669,9.1805056,19,4.5,
Grannus Milano Bakery • Porta Ticinese,45.45675139999999,9.1805165,0,0,
Panbarons Milano,45.465498,9.175989999999999,49,4.5,
Beefbar Milano,45.4681107,9.1984581,58,4.1,
Sapori Solari - La Bisteccheria,45.4508188,9.1924757,152,4.5,
Muu House - Milano,45.467132,9.2073134,352,4.2,3
Al Mercato Steaks Burgers Sant'Eufemia,45.4574755,9.1894356,656,4.3,2
Peperino e Milano,45.480967,9.1859579,3100,3.9,2
Cook Window,45.4601864,9.2091599,320,4.1,1
Rossopomodoro,45.4655661,9.198562299999999,1314,3.9,2
Panini Durini,45.4654183,9.198347499999999,489,4.1,2
Old Wild West,45.4648088,9.1902851,154,3.6,2
Da Zero,45.4642846,9.1793373,3428,4.4,2
Bioesseri Milano Brera,45.4728929,9.1885126,994,4,3
California Bakery,45.472681,9.206761199999999,147,3.9,2
Gialle & Co.,45.4798763,9.1835635,597,4.4,2
The cake corner,45.5165517,9.1774714,0,0,
Pastry café Romeo,45.4622605,9.137573,605,4.2,2
Amorino,45.4814643,9.187308,53,3.4,2
Gelateria Artigianale - Frozen,45.46029859999999,9.1116488,29,4.2,1
Ice cream shop,45.4815633,9.214502500000002,103,4.4,2
GROM,45.466357,9.1889226,853,4.3,2
Ciacco,45.463691,9.1868118,2282,4.6,2
Vanilla Gelati Italiani,45.4644683,9.1937932,1517,4.1,2
GROM,45.46669259999999,9.1981573,50,3.9,2
Iconico Gelato,45.4566521,9.183122,67,4.7,
Gelateria Porta Romana,45.4530086,9.2006073,369,4.3,2
Gelateria Amorino Navigli,45.4518297,9.1739303,731,3.6,2
Gelateria COLOMBO 1981,45.46436629999999,9.1883869,406,3.3,
Terra gelato,45.4825677,9.2066295,1801,4.6,2
Amorino,45.4647738,9.190152,613,3.9,2
FreddoGelato,45.4796068,9.1725383,250,4.4,
Elio's ice cream,45.4812263,9.2249349,92,3.9,
Ice Cream Bar,45.4304553,9.1787966,76,3.6,
Cioccolatitaliani,45.4657546,9.1913315,2433,3.8,2
Gelateria LAB,45.4756418,9.212737500000001,81,4.5,
Orsi Ice Cream Shop,45.4443627,9.1767526,794,4.1,1
Officine del Gelato,45.4585707,9.2064497,388,4.2,2
Eat Restaurant,45.4543502,9.194766099999999,36,4.1,
Soul food,45.4488402,9.1767938,43,5,
DeRos Restaurant,45.4685966,9.1904551,427,4.7,
Restaurante,45.4631391,9.1945017,0,0,
Ribot Restaurant,45.4832347,9.1380278,3616,4.5,3
Sophia's Restaurant,45.4868393,9.1573712,265,4.5,3
Restaurant Manin Garden,45.4739456,9.1960427,5,4.6,
a'Mare Restaurant,45.4627885,9.1930613,731,4.1,2
PanEVO Restaurant,45.478845,9.1992997,184,4.3,3
Vik Pellico Otto Restaurant,45.4657576,9.1897216,35,4.2,
Leonardo Restaurant,45.5006983,9.144727399999999,9,3.4,
142 Restaurant,45.45459530000001,9.17135,158,4.7,
Indian Restaurant and Take Away,45.4839046,9.2093805,529,4.8,
Benvenuto Family Restaurant - Milano,45.457512,9.1837302,435,4.5,2
Maio Restaurant,45.4648789,9.191965699999999,1318,4.1,3
N Restaurant,45.448452,9.2574322,49,3.7,
Italy Restaurant Milano,45.4661701,9.1858569,529,3.9,1
So Natural,45.4593968,9.1704937,421,4.2,2
Linfa Milano - Eat Different,45.4537706,9.163520199999999,351,4.3,
Moka Coffee,45.45507019999999,9.2159762,11,4.7,
Panificio Bread.Bakery.Coffee - 1958,45.4551871,9.2165934,27,4.1,
Bar Pasticceria Rovida,45.4835001,9.207981799999999,485,4.4,2
Italian Bakery Gae Aulenti,45.4838432,9.1890204,102,3.6,
Il Gelato di Gaia,45.4760893,9.224053999999999,101,4.1,
La Bottega del Gelato Cardelli dal 1964,45.4833179,9.213039,547,4.4,2
Terra gelato,45.487251,9.1659595,131,4.4,
OGGI - Officina Gelato Gusto Italiano,45.475702,9.18385,1691,4.7,2
Gelato 4ever,45.4852302,9.1955057,138,4.7,
Rivareno,45.4711533,9.184406899999999,772,4.4,2
Gelato Fatto Con Amore,45.4660888,9.1774769,1185,4.8,2
Oltre il gelato,45.4967888,9.2027098,47,4.2,
Mancuso Gelati Italiani 1920,45.4856107,9.1914686,427,4.4,2
Il Gelato di Maia,45.478459,9.1764596,55,4.7,
Nosh Gelato,45.4678721,9.172331,176,4.8,
Charlotte Gelati,45.4471818,9.166903399999999,38,4.9,
Gelato Giusto,45.4785465,9.2063448,843,4.5,2
I Giardini del Gelato,45.48698160000001,9.188606,52,4.3,
The ice cream Gianni,45.4885792,9.2237642,377,4.7,1
Rivareno Gelato,45.4520367,9.183138699999999,744,4.6,2
"GELATO for RUN - Gelateria Artigianale, Pasticceria, Yogurt",45.4755226,9.1601897,275,4.6,2
Esca Fish Restaurant,45.4785378,9.2072875,0,0,
Al Grigliaro,45.465413,9.2111629,229,4.4,3
Noi Pesce,45.4842412,9.157126,951,4.3,2
IPPO Sushi Boutique (Castaldi),45.47711839999999,9.2023125,67,4.5,
UMA Sushi,45.4785928,9.2037669,525,4,2
ONO Sushi Experience,45.4778028,9.2058102,2515,4.1,2
SUSHI COMPANY SRL,45.477811,9.1986771,4,4.5,
Sushi Kòbbo,45.4778062,9.1987438,1021,4.2,2
SushiArt - Milano,45.4766657,9.188822499999999,279,4.4,2
"VETRA - Cocktails, Beer & Wine bar",45.4570839,9.1833107,66,4.3,1
Bar Charlie,45.450505,9.2023853,271,4.1,2
Malibu cocktail bar,45.4759049,9.2049585,9,4.7,
Bar Magenta,45.46571429999999,9.1756493,5569,3.8,2
LOVE,45.472826,9.209661299999999,399,3.6,1
Lido Liquor Bar,45.4564769,9.1733171,65,4.2,2
Bar Eritrea,45.4776183,9.2031074,22,4.1,
The Lounge Bar,45.4786802,9.199333099999999,28,4.1,
Bar Dolly,45.4630824,9.1864809,217,3.4,
Bar Duomo,45.4638382,9.193251900000002,222,3.3,2
Oberdan Bar,45.47521690000001,9.2049626,78,3.7,
BAR MAN BAR,45.46058499999999,9.1838567,4,5,
Grand Lounge & Bar,45.4640003,9.193494,0,0,
Bar la darsena,45.4516815,9.1801874,55,4.2,
Bar Tabacchi,45.45957850000001,9.2072851,3,3.3,
Bar Turati,45.4738778,9.195055,222,4.1,2
BAR MANUZIO Sas di FJODOR BRAHIMAJ & C.,45.47819339999999,9.2000526,10,4.5,
Il Bar in Piazza Duomo,45.4647826,9.1918657,403,3.3,3
The Doping Bar,45.4531584,9.179171199999999,652,4.4,3
Vogue Bar,45.4570787,9.1836521,79,4.6,
So Salad Corsico,45.4378906,9.1018296,0,0,
L'Oasi Del Fresco. Anguria,45.462189,9.158059,62,4.4,
LA BOUTIQUE DEL GRANO,45.49854149999999,9.1698582,5,5,
Tapa,45.4511554,9.2060475,1090,4,2
Ba Ba Reeba,45.46325950000001,9.1994654,495,4.2,2
Tapas de Pescado,45.4504131,9.2010048,308,4.3,2
Il Tasca Milano,45.4592549,9.1810261,352,4.1,2
Llevataps,45.4598778,9.1715056,542,4.2,2
WHY NOT? Tapas & Lounge Bar,45.536622,9.2374233,297,4.1,2
La Casa Iberica - Viale Premuda 1,45.4630472,9.2072709,455,4,2
Oveja Negra Milano - Tapas e Paella,45.4709132,9.242651799999999,172,4.6,2
La Tartina,45.4714318,9.184865499999999,892,4.2,2
La Casa Iberica,45.4714805,9.183821,1072,4.2,2
Albufera,45.4818694,9.2062361,1472,4.5,3
La Tienda de juan,45.4758007,9.2045497,590,4.5,
Sevilla Mia Restaurante,45.4569765,9.1694494,260,4.2,
Ajo Blanco,45.4920152,9.1887147,1060,4,2
Recreo Bar Sartoria,45.4808333,9.1719444,460,4,2
Mantra,45.4873176,9.1884497,31,4.7,
La Casa Iberica - Colonne di San Lorenzo,45.4592592,9.1819028,152,3.6,
Moebius Milano,45.4814155,9.2028798,892,4.4,
La Casa Iberica - Via Carlo Ravizza 8,45.4679424,9.1523683,73,3.7,
Volverè - ristorante spagnolo con brace a Milano,45.48864409999999,9.1630734,718,4.4,2
Turkish Kebap,45.4859736,9.2271231,370,4.4,1
Blu Istambul,45.4859928,9.1584217,711,4.2,1
Kebhouze - Colonne,45.4571532,9.1808306,34,4.1,
PIZZA OFF,45.4654917,9.1763149,39,4.7,
Pizza AM,45.4556129,9.196863,5555,4.7,1
Place to be,45.4586783,9.1817475,0,0,
Pizzeria Marina,45.4487977,9.198093300000002,169,4.2,1
Pizza + Cucina,45.466168,9.1917654,44,4,
Savô Pizzeria Gourmet,45.4825955,9.1979884,257,4.9,
Pizza House 3,45.4778241,9.179584499999999,105,4.1,1
Pizza OK,45.47446739999999,9.2102759,1597,4.1,1
Pizzeria Milano Pizza Kebab Milano,45.4577165,9.2035807,132,4,1
Pizza Ok 2,45.46993310000001,9.153471099999999,817,4.1,2
Pizza And Food,45.495251,9.2376864,530,4.2,1
Ok 3 Pizzeria,45.4816186,9.211642699999999,114,4.5,1
Pizzeria Tutti I Gusti,45.4408371,9.156262,173,4.1,1
King Pizza,45.4655256,9.2080776,50,4.8,
Pizzeria Olivia,45.48184939999999,9.2323109,107,4.5,1
Il Pizzaleo - La vera pizza al taglio,45.4549628,9.1723618,147,4.7,
Pizzeria,45.4508482,9.197660500000001,5,4.8,
Mangiò,45.4779575,9.1825241,47,4.7,
Pizza Love,45.471984,9.185410100000002,52,4.1,
Alice Pizza Buenos Aires,45.4852983,9.2156063,423,4.2,2
The Bakery Milano,45.4397414,9.2233363,69,3.9,
Pub Drago Verde,45.4825695,9.1810387,161,4.2,2
Pasta à Gogo,45.48465849999999,9.216728,633,4.4,1
Osteria italiana,45.4828937,9.203351999999999,2604,4,2
restauranti pizza fish pasta,45.4836395,9.2015887,0,0,
Mani in Pasta,45.4729298,9.211005199999999,1460,4.4,2
Pasta mi,45.46690299999999,9.1653916,119,4.7,
Fresca Pasta Club,45.50444599999999,9.2053558,14,4.7,
Pasta Fresca Da Giovanni,45.44920200000001,9.177581,669,4.7,
Pasta & Mi,45.5038406,9.1657798,88,4.4,
Pastificio Irma,45.46579,9.161586,99,4.4,
Mani in Pasta,45.5036798,9.2396897,812,4.2,2
Mani in Pasta,45.4790387,9.162856699999999,365,4.8,2
El Barrio Loco,45.5451129,9.1185295,209,4.4,1
Rombon Bakery,45.4863244,9.239821,37,4.5,
DeliBakery,45.4944392,9.1959377,36,4.6,
Santa Marina Bakery,45.4942563,9.1853468,49,4.3,
Family Bakery Pietro&Milena,45.4987095,9.184134,89,4.1,
Pasa Kebap Pizza,45.4438651,9.1791973,262,4.5,1
Ramen a Mano,45.482318,9.1721154,1447,4.5,2
Ramen shop,45.4774197,9.2060659,1463,4.6,2
Ramen Shifu Filzi,45.4830849,9.199747499999999,522,4.3,2
"Zazà Ramen, sake bar & restaurant",45.4789968,9.1886023,1481,4.2,2
Niuda Ramen a Mano,45.4510328,9.1984239,352,4.8,
Mr.Wang Handmade Ramen & Dumplings,45.4515565,9.1869765,27,4.7,
Ramen Misoya | Milano,45.4795769,9.1886668,711,4.4,2
Ramen e Ravioli,45.4810942,9.173418999999999,69,4.7,
Takumi Ramen Kitchen Milano,45.479844,9.1720126,1248,4.6,2
Ramen House,45.459391,9.2070586,1023,4.3,1
Ramen Station,45.4503098,9.1797895,767,4.4,1
Takumi Ramen & Yakisoba,45.4890207,9.1876725,352,4.6,2
Mi-Ramen Bistro,45.4526177,9.1554517,1139,4.4,2
Casa Ramen Super,45.489669,9.1873702,824,4.5,2
Takumi Ramen Tonkotsu,45.4516641,9.1869514,116,4.5,
Daisy ramen(ex don street food),45.4813223,9.176528,178,4.2,
TENOHA RAMEN CLUB,45.4532761,9.1724296,475,4.5,
Lanzhou Ramen （樂家),45.4776138,9.2051465,555,4.3,
Inada ramen,45.4520334,9.2043059,245,4.8,
Olivia Gelato,45.460884,9.162951999999999,185,4.6,2
SAPEMARE,45.4864942,9.188363299999999,78,4.7,
Base cocktail bar,45.4523209,9.164190699999999,14,3.2,
Junction Bar & Sound,45.4977296,9.18413,66,4.2,
Bar ile,45.4685858,9.2330436,66,4.6,
Bar 089,45.4337281,9.1851486,132,4,1
backy bar,45.4879167,9.1625008,25,4.8,1
Bar All In - Food & Beverage,45.4871727,9.1623872,38,4.5,
Bar Happy,45.4261417,9.2514338,18,4.4,1
Bar,45.4700929,9.1930038,1,5,
Bar Brera,45.4723727,9.1874637,1621,3.8,2
Rufus Cocktail Bar,45.4679738,9.1643106,594,4.4,2
Kilburn Cocktail Bar Milano,45.4768568,9.2030387,918,4.5,2
Bar Porta Romana,45.4514819,9.2045249,70,3.9,
Monkey Cocktail Bar,45.480857,9.2035472,649,4.4,2
Casa Mia Cocktail Bar,45.4749416,9.210212199999999,430,4.3,2
Orange Spritz bar,45.4756066,9.204683,117,4.6,
Bar Basso,45.4768564,9.2175937,2535,3.8,3
Meat Grillfood,45.4658594,9.191114899999999,1176,3.2,2
God Save The Food,45.4701683,9.185547,1620,3.9,2
Hamerica's Camperio,45.4674606,9.1825131,893,4.3,2
Cafè de Ville,45.4677778,9.1830556,739,3.8,2
EATME & GO,45.4609262,9.184618,1374,3.9,2
The Pure Salad,45.465947,9.1767824,49,4.5,
Vino Y Tapas Srl,45.452295,9.174809999999999,0,0,
Enoteca Don Pietro,45.4527254,9.174805,115,4.5,2
Gne Gnè,45.4530458,9.173943999999999,2,3,
Señorío Milano,45.4796639,9.1799854,151,4.5,
"Tutto Bene, Grazie Bistrò",45.4661581,9.177197699999999,774,4.1,2
Pearl Milano - Oyster Bar & Tapas,45.4647639,9.2099725,8,5,
Tekei Sushi,45.46202539999999,9.2135736,48,4.4,
Yang Sushi and Fusion,45.485574,9.197614,1149,4.3,2
Umi Sushi,45.4892957,9.2054431,624,4.2,2
Shiny Sushi Japanese Restaurant,45.4707101,9.2223761,813,4.2,2
Sushi Daily Milano Gramsci,45.4814384,9.169325299999999,1,2,
En Sushi Asian,45.4620931,9.218008099999999,4,2.8,
Tea and Rolls Sushi,45.4367486,9.241465,79,3.9,2
Yu Hu,45.4971541,9.170487399999999,172,4.2,
Sushi Cube,45.4832224,9.204705299999999,300,4.5,2
Sushi II,45.4661834,9.2111156,736,4,2
Sushi Daily Milano Clotilde,45.4804853,9.1929442,18,4.4,
Wamiya Sushi Take Away,45.4911495,9.149671,33,4.4,
Princi,45.468798,9.199007,1449,4.1,2
My Dessert,45.4660939,9.195467299999999,0,0,
Panificio Maria Marinoni,45.4632554,9.199404300000001,32,4.3,
Backerei Srl,45.4694235,9.1855012,1,5,
Grannus Milano Bakery • Porta Romana,45.457926,9.1931183,53,3.6,
Princi,45.4693324,9.185535999999999,812,3.7,2
PANIFICIO RIMCO 2,45.4625126,9.187598699999999,12,4.9,
Cupcake Couture,45.4568406,9.1811165,0,0,
Cova Montenapoleone,45.46816889999999,9.1954589,1482,4.4,
California Bakery,45.46133340000001,9.192342499999999,1134,3.4,2
Panificio Principessa,45.4573994,9.193551,389,4.2,
Pan Focaccia s.a.s. di Gatti Marilena & c.,45.4620087,9.190989799999999,13,4.2,
Panificio Ticozzi San Maurilio 1,45.4615488,9.1851737,121,4.5,2
Ristorante Pizzeria con Forno a legna,45.4670657,9.1857372,61,4.7,
Piz,45.4619205,9.185647399999999,8572,4.5,2
Spontini,45.4657451,9.1912058,7005,4.2,1
Pizzeria Italia Uno,45.4508355,9.1901242,74,4.5,1
'O Fiore Mio Pizze di Strada,45.4751462,9.1908994,173,4.8,1
Alice Pizza Via Orefici,45.4639388,9.1877259,178,3.8,
Pizzeria Del Ticinese,45.4568642,9.1809697,725,4.4,2
Drink Bar,45.4838648,9.1870175,6,5,1
Bar Gluck,45.4910828,9.2070731,357,4.2,
Bar Argonne,45.4677002,9.233153500000002,32,4.3,
Bar Diciannove,45.4877207,9.1549567,44,4.5,1
Step Bar Milano,45.476462,9.203745999999999,146,3.9,
Paninoteca Ciaraldi,45.4797276,9.2111628,746,4.5,1
Panini Turro,45.4974585,9.2251893,436,4,2
Il panino del laghetto,45.46156,9.195655799999999,329,4.7,1
Kirby burgers and more,45.4573496,9.1899538,97,4.5,
Angus & More,45.4594104,9.2065552,537,4.5,2
Burgez,45.4552568,9.1678821,641,4.2,1
Kebab Pizza Istanbul Ayasofya,45.4675446,9.182463,458,4.3,1
Kebap murillo 33,45.4751543,9.1432108,5,4,
Istanbul aksu kebap pizze grill,45.4998038,9.1486953,69,4.1,1
Kebabbar Star Zagros,45.4620318,9.219056199999999,873,4.6,1
Milano Kebap House,45.4755404,9.1843532,115,4.2,1
Populer Pizze e Kebab,45.4870257,9.2117676,29,4.2,
Mekan Kebap,45.4515415,9.154496499999999,569,4.2,1
Istanbul Kebab Restaurant,45.4821868,9.2073283,564,4.1,1
KUZEY TURKİSH KEBAP PİZZERİA,45.4761233,9.2241378,2,5,
Turkish Kebap,45.47589060000001,9.193912400000002,215,4,1
Turkish Kebap,45.4620284,9.2124223,280,4.1,1
Kebab Molise,45.4567445,9.2235915,179,4.1,1
Watt Turkish kebab&pizza,45.4445705,9.1544786,96,4.1,1
İSTANBUL Turkish Kebap,45.483124,9.1654274,350,4.5,1
Ocean Restaurant,45.50066409999999,9.1827627,32,4.4,
Smile bakery,45.5269883,9.1650192,194,4.6,1
Pizzeria Starita Milano,45.4768909,9.1703999,2797,4.3,1
Original Pizza Ok,45.4620076,9.195063,889,3.8,2
Alice Pizza,45.4760779,9.2077134,618,3.9,2
Alice Pizza,45.4439183,9.178975699999999,5,3.8,
Gino Sorbillo - Pizza Gourmand,45.4651864,9.190684899999999,2999,4.1,2
Panino Giusto,45.470985,9.2012027,378,3.9,2
Rusty,45.4594064,9.2062327,316,4.4,2
King's pub Burgerama,45.4512252,9.1776103,850,4,2
Mind The Gap,45.4566543,9.2024166,411,4.3,2
Dehor,45.4768118,9.204051,28,4.5,
Officine Sbiellate,45.4499491,9.1858293,522,4.2,2
Montmartre Cafè 1952,45.47200429999999,9.185427299999999,255,4,2
The English Football Pub,45.4620263,9.185410500000001,1259,4.1,2
La Bombonera Sport Pub,45.4691961,9.2066138,75,4.9,
The Walrus Pub Milano,45.4530082,9.1721987,131,4.6,2
Bukowsky Pub,45.4565756,9.1895107,50,4.3,
Hop,45.4595373,9.206359599999999,817,4.3,2
Willy's Pub,45.4510478,9.1776362,41,3.7,
Navigli Craft Beer,45.4513261,9.1720197,391,4.5,1
Pub Ilio,45.45977999999999,9.1997337,0,0,
La Fontanella,45.4517838,9.177697199999999,1310,4.2,2
Henry's Cafe,45.4520725,9.1820383,988,4.2,2
East River | American Pub,45.45794859999999,9.1834461,48,4.6,
kubik,45.457135,9.2051124,25,4.8,
Civico Uno,45.4756759,9.2044629,48,4.6,
Tutti Fritti,45.4586923,9.1809847,449,4.4,2
Bar Brema,45.46329009999999,9.1996273,45,4.3,
Mondans 87,45.4562099,9.181251,61,4.3,
Birreria Pit Stop Beer Navigli Milano,45.45142449999999,9.172316200000001,113,3.7,1
Ristorante Papà Francesco,45.466232,9.190525,2019,3.9,2
Pane & Vino,45.46032779999999,9.181182699999999,1099,4.1,2
Pasta B Jinghua,45.4661941,9.1920337,617,4.2,2
Di Gennaro,45.4657604,9.1916614,2394,3.9,2
Charleston,45.4656792,9.1942264,1693,3.6,2
Gino's 1928,45.4656639,9.1910917,1784,3.5,2
Bice Restaurant,45.4700557,9.194168399999999,676,4.3,3
Pizzeria San Giorgio,45.4787918,9.2032692,250,4.7,1
Patti Bakery & Bistrot,45.4688159,9.176250399999999,635,3.9,
Leos Bakery,45.4554999,9.196956000000002,46,4.8,
LaPancakeria,45.4537616,9.196024099999999,0,0,
Panificio Pasticceria,45.4557698,9.180595799999999,6,4.8,
Pizzeria Capuano's,45.4806685,9.1686025,2165,4.3,2
Pizzeria Positano Street Milano,45.4481216,9.1868305,21,4.9,
